Start station,0,1,2,3,4,5,6,7,8,9,10,11,12,13,14,15,16,17,18,19,20,21,22,23,Cluster,commonName,lat,lon,NbDocks,geometry,Community
"Abbey Orchard Street, Westminster",0.25,0.0,0.0,0.0,0.0,0.0,0.09090909090909083,0.0013586956521738358,-0.9454545454545453,-0.5896103896103895,-0.3571428571428572,0.18939393939393923,0.3309941520467836,0.09855769230769229,0.2045028142589118,0.625,1.417372881355932,3.873809523809524,1.8095238095238095,0.9420289855072463,0.13809523809523805,0.30000000000000004,0.25,0.375,0,"Abbey Orchard Street, Westminster",51.498125,-0.132102,29,POINT (699058.1843214651 5709120.832141998),1
"Abingdon Green, Westminster",-0.5,0.0,0.0,0.0,0.0,0.0,0.0,0.136876006441224,0.0714285714285714,0.12581699346405228,0.2837528604118993,0.6000000000000001,0.8071895424836599,0.49090909090909074,0.6780487804878048,0.2282828282828282,0.7635869565217392,1.4583333333333333,1.317738791423002,0.9447674418604652,0.45833333333333326,0.0,0.7142857142857142,0.0,0,"Abingdon Green, Westminster",51.49764,-0.125972,20,POINT (699485.7004948586 5709083.60437273),1
"Albert Gate, Hyde Park",-2.0,0.0,0.0,0.0,0.0,0.0,0.11111111111111116,0.10580645161290314,1.0980392156862746,1.6444308445532436,0.46341463414634143,0.34482758620689635,1.480376766091052,1.3842195540308753,1.8169934640522873,1.7744107744107742,1.604545454545455,1.7488232777064607,2.366071428571429,0.3022941970310389,-0.3571428571428572,-0.37142857142857144,0.5625,-0.375,0,"Albert Gate, Hyde Park",51.502953,-0.158456,34,POINT (697208.4640703334 5709586.251576245),1
"Archbishop's Park, Waterloo",0.0,0.0,0.0,0.0,0.0,0.0,0.0,0.0,0.2691532258064515,0.16149068322981375,0.09090909090909083,-0.38888888888888906,0.30000000000000004,0.248868778280543,-0.01666666666666683,0.4545454545454546,0.5499999999999998,0.4981447124304268,0.7118863049095607,0.48106060606060597,0.6086956521739131,-0.5,0.1428571428571428,0.125,0,"Archbishop's Park, Waterloo",51.498241,-0.117495,23,POINT (700071.3429518521 5709173.571098985),1
"Bank of England Museum, Bank",0.0,0.0,0.0,0.0,0.0,0.0,-1.9377705627705628,-0.34554199038105815,0.7211822660098521,0.3450292397660819,0.2416666666666667,0.5459183673469388,1.0381818181818183,1.2157190635451507,0.6296296296296298,0.8111111111111113,3.397435897435898,5.740237691001697,1.7130469057942452,1.0263157894736843,0.7571428571428571,0.2543859649122806,0.19999999999999996,0.0,0,"Bank of England Museum, Bank",51.514441,-0.087587,16,POINT (702075.1039451705 5711056.914529928),1
"Barbican Centre, Barbican",0.0,0.0,0.0,0.0,0.0,0.0,0.0,0.1272727272727272,0.45478204294079383,-0.5200501253132832,0.4380952380952381,-0.003472222222222321,0.2863202545068928,0.545219638242894,0.44622093023255816,0.4571428571428571,0.4521739130434783,0.8615036743923121,2.2874316939890713,1.8461538461538463,1.0452830188679247,1.5365853658536586,0.0,0.5714285714285714,0,"Barbican Centre, Barbican",51.520044,-0.092176,19,POINT (701731.9923194681 5711667.196516773),1
"Bath Street, St. Luke's",-0.16666666666666674,0.0,0.0,0.0,0.09677419354838701,0.0,-0.12836438923395455,1.2038135593220338,3.691176470588235,2.1182669789227164,0.9221052631578948,0.7481060606060608,0.6554054054054055,1.212512413108242,0.5419913419913418,0.8530769230769228,1.1427927927927926,2.1375661375661372,3.025714285714286,2.442326490713588,1.8344827586206895,0.9295900178253118,0.2777777777777777,0.4375,0,"Bath Street, St. Luke's",51.525893,-0.090847,18,POINT (701798.3034905228 5712321.163180962),1
"Bayley Street , Bloomsbury",0.5,0.0,0.0,0.0,0.0,0.0,0.0,-0.14230769230769225,0.1333333333333333,0.1522875816993463,0.125,-0.29473684210526296,0.7159090909090908,1.163265306122449,0.9045183290707588,0.7252747252747251,1.4885245901639343,3.2960102960102957,2.406041986687148,1.656648451730419,1.2635327635327638,0.680672268907563,0.43087557603686655,0.3532608695652173,0,"Bayley Street , Bloomsbury",51.518587,-0.132053,25,POINT (698972.3794746381 5711395.974766878),1
"Beaumont Street, Marylebone",0.0,0.0,0.0,0.0,0.0,0.0,-0.10000000000000009,0.47357404500261646,1.1502463054187193,0.5040197897340755,0.4952561669829221,0.8543599257884973,0.2766217870257037,0.7657004830917877,0.45345345345345334,0.9137466307277631,0.9702380952380951,1.768476621417798,0.8167115902964961,0.7937915742793791,0.23232323232323226,0.48,0.5517241379310345,-0.4057971014492754,0,"Beaumont Street, Marylebone",51.522008,-0.151359,23,POINT (697618.4016948504 5711723.990769424),1
"Bedford Way, Bloomsbury",0.10000000000000009,0.0,0.0,0.0,0.0,0.0,0.0,0.15999999999999992,0.21875,0.6845238095238095,0.25,0.3076923076923077,0.2729528535980148,-0.06621392190152808,0.5948051948051949,0.2333333333333334,1.021276595744681,1.259259259259259,1.0962962962962963,-0.2249240121580547,0.41666666666666674,-0.33333333333333326,-0.3421052631578947,0.22222222222222232,0,"Bedford Way, Bloomsbury",51.523673,-0.128377,23,POINT (699205.159711735 5711971.453795089),1
"Blackfriars Road, Southwark",-0.0714285714285714,-2.0,0.0,0.0,0.0,0.0,0.1428571428571428,-0.39224137931034475,-0.8086206896551724,0.21475625823451905,0.6172248803827749,0.21875,0.8333333333333333,0.4744186046511629,0.25555555555555576,0.0,0.6997971602434077,2.4190476190476193,1.6035767511177348,1.0138888888888888,0.47846889952153115,0.6927536231884057,-0.7692307692307692,0.16666666666666674,0,"Blackfriars Road, Southwark",51.505461,-0.10454,42,POINT (700938.5875158405 5710011.8066652585),1
"Borough Road, Elephant & Castle",0.0,-0.25,0.0,0.0,0.5,0.125,0.0,0.6744186046511629,1.7182539682539684,0.8148148148148149,0.23076923076923084,0.1333333333333333,0.1992337164750957,0.24420677361853826,0.32638888888888884,0.17241379310344818,1.0947368421052632,0.9404761904761907,0.7523076923076926,0.3712121212121213,0.16165413533834583,0.0,-0.23076923076923084,0.4126984126984128,0,"Borough Road, Elephant & Castle",51.498898,-0.10044,41,POINT (701251.9889492306 5709293.392625363),1
"Brushfield Street, Liverpool Street",0.3571428571428572,-0.05555555555555558,0.0,-0.06666666666666665,0.19999999999999996,-0.625,-2.2106261859582546,-0.567647933392804,-1.5939393939393942,0.04601125455147281,0.8040170419963484,1.0088652482269505,1.6683569979716022,1.126559714795009,1.015212981744422,1.6474137931034485,3.113735465116279,8.798150510204081,5.860931899641577,2.177801724137931,1.0185185185185186,0.6186868686868685,0.1051282051282052,0.4411764705882353,0,"Brushfield Street, Liverpool Street",51.518908,-0.079249,34,POINT (702633.6802803889 5711576.627826137),1
"Bruton Street, Mayfair",-2.1666666666666665,1.5,0.0,0.0,0.0,0.0,0.0,-0.19999999999999996,-0.4411764705882353,-0.04761904761904767,-0.7142857142857142,-0.8333333333333333,0.2857142857142858,0.2919254658385093,-0.025210084033613356,0.303921568627451,0.4193548387096775,1.564039408866995,1.3035714285714286,0.803921568627451,0.0,0.36363636363636354,-0.3181818181818181,0.0,0,"Bruton Street, Mayfair",51.510736,-0.144165,21,POINT (698166.3156989609 5710490.202837724),1
"Bury Place, Holborn",0.0,0.0,0.0,0.0,0.0,0.0,0.0,0.011111111111111072,-0.021094264996704082,-0.07792207792207795,-0.11336032388663964,0.19487179487179485,0.42191142191142195,0.13803088803088803,0.4901960784313726,0.6868686868686869,1.0294599018003272,2.3818306010928962,2.0654853620955316,1.2478632478632479,0.43333333333333335,0.5714285714285714,0.0,0.0,0,"Bury Place, Holborn",51.51742,-0.123189,21,POINT (699592.3336548541 5711290.374855021),1
"Chadwell Street, Angel",0.0,0.0,0.0,0.0,0.0,0.0,0.8125,1.7410714285714284,2.9377049180327868,2.783333333333333,0.37621832358674445,-0.19740259740259747,0.3545454545454545,0.27941176470588225,0.3481781376518218,0.55,0.4975845410628019,0.9680277349768875,1.0225563909774438,0.3010033444816054,0.303030303030303,0.2679045092838197,-0.09000000000000008,0.13095238095238093,0,"Chadwell Street, Angel",51.530515,-0.106408,18,POINT (700698.7602220923 5712792.2246193625),1
"Chapel Place, Marylebone",0.25,0.0,0.0,0.0,0.0,0.0,-0.11428571428571432,-0.32999999999999985,-0.9285714285714286,-0.16481481481481497,0.1826923076923077,0.39523809523809517,0.6168831168831168,0.7638888888888888,0.6160287081339713,0.9920634920634919,1.8919491525423728,3.098245614035087,2.0116959064327484,0.9353741496598638,0.2753623188405798,0.26315789473684204,0.5,0.0,0,"Chapel Place, Marylebone",51.515308,-0.147203,29,POINT (697935.7204122903 5710990.304164591),1
"Christopher Street, Liverpool Street",0.0,1.0,0.0,0.0,0.0,0.0,-1.2413793103448274,-0.5734265734265735,-0.7465472191116087,-0.2775735294117647,0.022222222222222365,0.3666666666666667,0.27575757575757587,0.16842105263157903,0.07342657342657355,0.368421052631579,1.375757575757576,4.459612518628912,1.2797202797202798,0.5666666666666667,0.3157894736842106,0.3125,0.0,0.2857142857142858,0,"Christopher Street, Liverpool Street",51.521283,-0.084605,32,POINT (702251.640902797 5711825.858795362),1
"Clarges Street, Mayfair",0.0,0.0,0.0,0.0,0.0,0.0,-0.25,0.1428571428571428,-0.11904761904761907,0.28888888888888875,0.050000000000000044,0.3529411764705883,-0.06593406593406592,0.47058823529411775,0.29166666666666674,-0.875,0.19999999999999996,0.9166666666666665,0.1777777777777778,0.6451612903225807,0.28,0.0,-1.1666666666666667,0.0,0,"Clarges Street, Mayfair",51.507326,-0.145827,16,POINT (698065.805795815 5710106.569705442),1
"Clerkenwell Green, Clerkenwell",0.18181818181818188,0.0,0.5,0.0,0.0,0.0,0.16666666666666674,0.45052631578947366,0.48064516129032286,0.927777777777778,0.34491978609625673,0.5555555555555556,0.766025641025641,0.5648148148148149,0.37797619047619047,0.8,0.6666666666666667,1.753789050417569,3.1704918032786886,0.85178463399879,0.4073518379594898,0.27453769559032715,0.3018433179723503,0.10138248847926268,0,"Clerkenwell Green, Clerkenwell",51.52326,-0.104708,21,POINT (700848.5878878077 5711990.26726694),1
"Clifton Street, Shoreditch",0.0,0.0,0.0,0.0,0.0,0.0,0.16666666666666674,0.403225806451613,-0.7964426877470354,-0.1728307254623045,0.12352941176470589,0.3904761904761904,0.30000000000000004,0.27083333333333326,0.23529411764705888,0.11497326203208558,0.6486486486486487,1.5384615384615383,2.0847457627118646,0.6956521739130435,0.2272727272727273,-1.8666666666666667,0.0,0.0,0,"Clifton Street, Shoreditch",51.523196,-0.083067,24,POINT (702349.8327273645 5712042.802638378),1
"Columbia Road, Shoreditch",0.0,0.0,0.0,0.0,0.0,0.0,0.0,1.6707021791767556,3.7896825396825395,2.0128205128205128,0.5494505494505495,0.1071428571428572,0.5666666666666667,0.3999999999999999,-0.028571428571428692,0.10909090909090913,0.2962962962962963,0.23170731707317072,0.6254901960784311,0.3472706155632985,0.2282608695652173,0.15000000000000013,0.3125,0.5,0,"Columbia Road, Shoreditch",51.528187,-0.075375,24,POINT (702861.1337081576 5712619.0170144485),1
"Coram Street, Bloomsbury",0.0,0.0,0.0,0.0,0.0,0.0,0.4285714285714286,0.837912087912088,1.6995614035087718,0.5147058823529411,0.2933227344992051,0.5555555555555556,0.4357142857142857,0.4444444444444444,0.2652439024390243,0.3660714285714286,0.9041666666666666,1.2163636363636365,1.2454545454545451,1.1500559910414332,0.6102941176470589,0.6363636363636362,0.18181818181818188,0.11111111111111116,0,"Coram Street, Bloomsbury",51.524,-0.126409,29,POINT (699340.2258278949 5712013.172332775),1
"Crawford Street, Marylebone",0.0,0.0,0.0,0.0,0.0,0.0,0.2727272727272727,0.4273504273504274,1.7907656341320866,1.3662280701754388,0.8245283018867924,0.609009009009009,0.35137533274179233,0.4703947368421053,0.3157894736842106,0.4197860962566844,0.5888888888888888,0.8127530364372471,1.2338383838383837,0.6420454545454546,0.6507936507936507,0.5833333333333335,0.41714285714285726,0.5294117647058822,0,"Crawford Street, Marylebone",51.52026,-0.157183,18,POINT (697222.0039486261 5711513.923644061),1
"Crosswall, Tower",0.33333333333333326,0.0,0.0,0.0,0.0,0.0,2.192982456140351,8.218462823725982,4.946051167964406,3.1930729550479002,1.1518644067796608,0.3423423423423424,0.9241486068111453,0.531135531135531,0.07499999999999996,-0.25384615384615383,0.5087719298245612,3.0971055088702144,1.7232758620689652,1.6308962264150941,0.8903743315508021,0.7446808510638299,0.20000000000000018,0.4375,0,"Crosswall, Tower",51.511594,-0.077121,34,POINT (702813.7865835119 5710769.347230517),1
"Drummond Street , Euston",0.0,0.0,0.0,0.0,0.0,0.0,0.6603773584905661,3.9508196721311473,4.901129943502824,0.9767441860465116,0.6774193548387097,0.2666666666666666,0.1333333333333333,0.23529411764705888,0.07499999999999996,0.1875,0.31666666666666665,-0.24751066856330017,-0.45238095238095233,0.46638655462184864,-0.13888888888888906,0.05555555555555558,0.5714285714285714,0.25,0,"Drummond Street , Euston",51.527326,-0.136052,28,POINT (698656.9362694563 5712356.727549303),1
"Elizabeth Bridge, Victoria",0.0,-0.6666666666666667,-0.33333333333333326,0.0,0.0,0.0,0.1428571428571428,0.5098039215686274,0.26875000000000004,0.4500818330605565,0.3666666666666667,0.5714285714285714,0.2637362637362637,0.4358974358974359,0.4285714285714286,0.2905982905982907,0.38618925831202033,1.2666666666666668,0.5666666666666667,0.5320855614973261,0.4945054945054945,0.14782608695652177,-0.23308270676691745,0.2857142857142858,0,"Elizabeth Bridge, Victoria",51.492369,-0.147478,34,POINT (698016.102754892 5708439.146307175),1
"Euston Square Gardens, Euston",0.0,0.0,0.0,0.0,0.0,0.08000000000000007,0.6730769230769231,2.3622222222222224,4.068181818181818,1.375,1.2032967032967035,0.5294117647058822,-0.00793650793650813,0.26315789473684204,0.3571428571428572,0.0,0.09207459207459201,-0.2749999999999999,0.3620689655172413,0.5162337662337664,0.12030075187969924,0.1333333333333333,-0.33333333333333326,0.4444444444444444,0,"Euston Square Gardens, Euston",51.527068,-0.131861,30,POINT (698948.7141651544 5712339.434673073),1
"Eversholt Street , Camden Town",-0.1428571428571428,0.25,0.0,0.0,0.0,0.0,0.0,0.0,3.265625,1.2916666666666665,0.894736842105263,0.40208333333333335,0.25213675213675213,-0.06818181818181812,0.36250000000000004,0.4945054945054945,-0.19130434782608696,0.24929971988795518,0.3481481481481481,0.39089481946624804,0.013157894736842035,0.22962962962962963,0.6038461538461537,0.07499999999999996,0,"Eversholt Street , Camden Town",51.533005,-0.136792,16,POINT (698580.8915070909 5712986.123613737),1
"Fanshaw Street, Hoxton",0.41666666666666674,0.0,0.0,-0.6666666666666667,0.0,0.0,0.5294117647058822,1.3157894736842106,3.2183622828784118,2.6164874551971327,0.6400000000000001,0.7816836262719702,0.6986794717887155,0.8571428571428572,0.588972431077694,0.32352941176470584,0.19004524886877827,0.8655700510493478,0.4943977591036415,0.948051948051948,0.6023706896551724,0.26086956521739135,0.5606060606060606,0.03333333333333344,0,"Fanshaw Street, Hoxton",51.529537,-0.083353,36,POINT (702301.8755660217 5712747.0122642545),1
"Finsbury Leisure Centre, St. Luke's",0.0,0.0,0.0,1.0,-0.19999999999999996,0.1428571428571428,1.3,2.6900000000000004,6.203125,2.435483870967742,1.5055555555555558,0.6233962264150943,0.6672932330827066,1.6001024065540193,0.9427609427609427,0.523809523809524,0.596774193548387,1.0886803874092008,2.6469907407407405,2.3898505114083406,0.9700715679895899,0.3928571428571428,-0.06071428571428572,-0.4454545454545453,0,"Finsbury Leisure Centre, St. Luke's",51.526008,-0.096317,20,POINT (701418.433361303 5712318.870363641),1
"Finsbury Square , Moorgate",0.0,0.0,0.0,0.0,0.0,0.0,0.11111111111111116,-0.13636363636363646,-1.5684485006518905,0.7047619047619049,0.00512820512820511,0.4833333333333334,0.11038961038961048,0.5714285714285714,0.296068796068796,0.3388888888888888,0.7222222222222223,4.118169398907104,2.5013979496738115,1.1041666666666665,0.9090909090909092,0.43999999999999995,0.38888888888888884,0.09090909090909083,0,"Finsbury Square , Moorgate",51.520962,-0.085634,33,POINT (702181.6916336799 5711787.324658935),1
"Foley Street, Fitzrovia",0.0,0.0,0.0,0.0,0.0,0.0,0.0625,0.17305458768873394,0.8618275607958734,-0.23710819009100126,0.442871587462083,0.8942307692307694,0.33578947368421064,0.4119047619047618,0.3076923076923077,0.5441176470588234,1.7337164750957852,3.2130434782608694,3.180392156862745,1.1799999999999997,0.875,0.4624999999999999,0.368421052631579,0.15384615384615374,0,"Foley Street, Fitzrovia",51.519181,-0.140485,24,POINT (698384.9116155463 5711439.11377541),1
"Frith Street, Soho",-0.06666666666666665,0.0,0.0,0.33333333333333326,0.0,0.0,0.0,0.09090909090909083,-0.29807692307692313,0.1473429951690821,0.4826839826839826,0.16190476190476177,0.2532467532467533,0.4343891402714932,0.5714285714285714,0.2272727272727273,0.5621052631578947,0.5093167701863353,0.3316326530612246,0.48945615982241986,0.8793650793650793,0.9375,1.525,0.7619047619047616,0,"Frith Street, Soho",51.513103,-0.131213,18,POINT (699054.5633347848 5710788.536672089),1
"Gaywood  Street, Elephant & Castle",-1.0,0.0,0.0,0.0,0.0,0.0,0.0,1.473684210526316,1.8333333333333333,1.1410256410256407,0.375,0.4179487179487178,0.025252525252525304,0.4782608695652173,0.37142857142857144,0.3913043478260869,0.3367003367003367,0.35372340425531923,0.04870129870129869,0.5931372549019609,0.10139860139860146,0.14285714285714302,0.17619047619047623,0.2727272727272727,0,"Gaywood  Street, Elephant & Castle",51.49605,-0.104193,45,POINT (701004.0863286003 5708966.431320187),1
"George Place Mews, Marylebone",0.0,0.0,0.0,0.0,0.0,0.0,0.0,0.2857142857142858,1.1866666666666668,0.8494736842105264,0.27494456762749464,0.6000000000000001,0.4666666666666668,0.3999999999999999,0.3571428571428572,0.46875,0.4516129032258065,0.5942307692307691,0.7,0.5416666666666667,0.11029411764705888,-0.125,0.05714285714285716,0.11111111111111116,0,"George Place Mews, Marylebone",51.516892,-0.158249,16,POINT (697162.6140893222 5711136.585945214),1
"Geraldine Street, Elephant & Castle",0.0,0.0,0.0,0.0,0.0,0.0,0.0,0.0,1.5918367346938775,0.5,-0.00793650793650813,0.33333333333333326,-0.05555555555555558,-0.11111111111111116,-0.15760869565217384,0.6842105263157894,0.20948616600790504,-0.0714285714285714,0.1456140350877193,-0.016666666666666607,0.18939393939393945,0.2321428571428572,0.0,0.6666666666666667,0,"Geraldine Street, Elephant & Castle",51.496127,-0.106,17,POINT (700878.3439261065 5708970.029642194),1
"Godliman Street, St. Paul's",0.0,0.0,0.0,0.0,0.0,0.0,-0.5666666666666667,-1.0375,-1.2401960784313726,-0.10367892976588644,0.11176470588235299,-0.023809523809523947,0.6484848484848484,0.641025641025641,0.7714285714285711,1.1307692307692307,1.349898580121704,4.7727272727272725,2.857142857142857,0.7683397683397681,0.4027777777777777,-0.6875,0.375,-0.6666666666666667,0,"Godliman Street, St. Paul's",51.512484,-0.099141,25,POINT (701282.2251579571 5710807.477017853),1
"Grafton Street, Mayfair",0.0,0.0,0.0,0.0,0.0,0.0,0.0,0.0,-0.5256756756756757,0.19612068965517238,0.33333333333333326,0.3653846153846154,0.19078947368421062,0.11739130434782608,0.09999999999999987,-0.1399999999999999,0.7941176470588236,0.8995098039215685,1.329090909090909,0.7931034482758621,0.1875,0.1428571428571428,0.0,0.0,0,"Grafton Street, Mayfair",51.509992,-0.143495,18,POINT (698216.0289577442 5710409.2982946765),1
"Graham Street, Angel",0.0,0.0,0.0,0.0,-1.0,0.0,0.575,2.2131147540983607,6.157258064516129,4.320430107526882,1.3547008547008548,0.45238095238095255,0.5173913043478262,0.11351351351351369,0.17450980392156867,0.3019943019943021,0.41087962962962954,0.46479500891265624,1.1345029239766082,0.4821428571428572,0.22417153996101358,0.20300751879699241,0.41666666666666674,0.0,0,"Graham Street, Angel",51.532661,-0.099981,26,POINT (701134.9859140397 5713048.478187342),1
"Great Suffolk Street, The Borough",0.0,0.0,0.0,0.0,0.0,0.0,0.0,0.375,3.5428571428571427,0.625,0.4433497536945814,0.36363636363636354,0.27956989247311825,0.33333333333333326,0.33333333333333326,0.3076923076923077,0.5,0.938029661016949,1.0784313725490196,0.01672240802675584,0.07357357357357364,0.023809523809523725,0.022727272727272707,0.125,0,"Great Suffolk Street, The Borough",51.501732,-0.100292,21,POINT (701249.7687710027 5709608.887667844),1
"Grosvenor Crescent, Belgravia",0.0,0.0,0.0,0.0,0.0,0.0,0.0,0.0,0.0277777777777779,-0.20634920634920628,0.23809523809523814,0.3076923076923077,-0.3666666666666667,0.19999999999999996,0.6428571428571428,0.3434343434343434,1.0789473684210527,0.11363636363636354,0.15999999999999992,0.3076923076923077,0.0714285714285714,0.0,0.0,0.0,0,"Grosvenor Crescent, Belgravia",51.501352,-0.153194,18,POINT (697580.5167388308 5709422.445313127),1
"Guilford Street , Bloomsbury",0.0,0.0,0.0,0.0,0.0,0.0,0.0,0.1210526315789473,-0.3688524590163933,1.0316498316498317,0.6183673469387754,0.7692307692307692,0.9566326530612246,0.7186147186147187,0.4538461538461538,0.9062937062937064,2.3025806451612905,5.0648723257418915,2.062950819672131,1.0,0.90359477124183,0.5789473684210527,0.16363636363636358,0.09890109890109877,0,"Guilford Street , Bloomsbury",51.523346,-0.120202,32,POINT (699773.5855847336 5711957.394637886),1
"Harris Academy, Bermondsey",0.0,0.0,0.0,-0.5,0.0,0.0,0.0,1.358490566037736,2.4210526315789473,1.150943396226415,0.3571428571428572,0.45833333333333326,0.643939393939394,0.10784313725490202,0.1428571428571428,0.5185185185185186,0.15714285714285725,0.04367201426024958,0.11507936507936511,0.009316770186335477,0.15434782608695663,-0.26455026455026465,-0.2777777777777777,-0.33333333333333326,0,"Harris Academy, Bermondsey",51.492668,-0.07235,18,POINT (703228.9948502233 5708678.379133785),1
"Hatton Wall, Holborn",0.625,1.0,0.0,0.0,0.0,0.04878048780487809,-0.5,0.2713178294573644,1.0140089418777944,0.553030303030303,0.20680851063829797,0.5347091932457786,0.49603174603174605,1.0718518518518516,0.9046563192904655,0.9755911517925249,1.4249165739710792,3.9542824074074074,3.541935483870968,0.7396226415094338,0.6936170212765957,0.5488565488565489,0.40625,-0.07826086956521738,0,"Hatton Wall, Holborn",51.521661,-0.109006,26,POINT (700557.5179070572 5711800.693465647),1
"Holborn Circus, Holborn",0.0,0.0,0.0,0.0,0.0,-0.22222222222222232,-0.24675324675324672,-0.2564102564102564,-5.267184354328444,-2.135961680176861,-0.28174603174603186,0.23376623376623362,0.6942857142857144,1.1278592375366567,0.7758865248226949,1.4861503674392311,2.0658307210031346,7.227106227106228,8.615238095238094,4.866666666666667,1.475,0.5925925925925926,0.3999999999999999,0.2857142857142858,0,"Holborn Circus, Holborn",51.51795,-0.108657,40,POINT (700598.0375795757 5711389.054823046),1
"Holy Trinity Brompton, Knightsbridge",0.0,0.0,0.0,0.0,0.0,0.0,0.5,0.6428571428571428,0.30833333333333335,0.11282051282051286,0.4444444444444444,-0.06666666666666665,-0.07499999999999996,0.16666666666666652,0.38095238095238093,0.6000000000000001,0.4966216216216217,1.1201923076923075,0.48888888888888893,0.5,0.34782608695652173,0.46153846153846145,0.3076923076923077,0.375,0,"Holy Trinity Brompton, Knightsbridge",51.497056,-0.168917,28,POINT (696507.9587419257 5708902.460507984),1
"Horseferry Road, Westminster",0.0,0.0,0.0,-0.5,1.0,0.0,0.09677419354838701,-0.21969696969696972,0.6206538661131293,0.7511773940345368,0.3555555555555556,0.5666666666666667,0.7403100775193798,0.3404940923737916,0.5809523809523809,0.6656976744186047,1.325115562403698,3.666666666666667,1.6750700280112045,0.32162162162162167,0.11568627450980395,-0.10606060606060597,0.03174603174603163,0.08333333333333348,0,"Horseferry Road, Westminster",51.494816,-0.130458,16,POINT (699186.7028334276 5708757.405095611),1
"Hyde Park Corner, Hyde Park",0.33333333333333326,-1.0,0.0,0.0,0.0,0.0,0.15384615384615374,0.27913279132791313,0.6742424242424243,1.3265421618562532,0.9345238095238093,1.5251491901108265,1.4682539682539684,0.3803418803418799,0.8879245283018871,1.5958620689655172,1.7783818356251997,0.9586956521739127,0.7841880341880345,0.9150197628458496,0.4015151515151514,0.22222222222222232,0.27380952380952395,0.19999999999999996,0,"Hyde Park Corner, Hyde Park",51.503117,-0.15352,36,POINT (697550.2588241849 5709617.80216424),1
"Kennington Station, Kennington",0.33333333333333326,0.0,0.0,0.0,0.0,0.0,0.2857142857142858,0.46341463414634143,1.7321428571428572,0.8367346938775511,-0.07142857142857162,0.5555555555555556,0.1428571428571428,0.3666666666666667,-0.07017543859649122,0.22258064516129017,0.43333333333333335,0.5336538461538463,0.23809523809523814,0.08434959349593507,0.37254901960784315,0.0727874276261371,0.15476190476190466,0.5217391304347827,0,"Kennington Station, Kennington",51.488852,-0.105593,23,POINT (700938.5908196815 5708162.302816168),1
"Kings Gate House, Westminster",0.0,0.0,0.0,0.0,0.0,0.0,-0.19999999999999996,-0.9065040650406504,-0.9575,0.03571428571428581,0.18518518518518512,-0.02499999999999991,0.18518518518518512,0.3895833333333334,0.25,0.5227272727272727,1.0653061224489797,3.245614035087719,1.562152133580705,0.3902439024390243,0.5407239819004526,-0.023809523809523947,0.0,0.0,0,"Kings Gate House, Westminster",51.497698,-0.137598,24,POINT (698678.6410075375 5709058.419013274),1
"Kingsway, Covent Garden",0.0,0.0,0.0,0.0,0.0,0.0,-1.0,0.0,-0.01724137931034475,0.14473684210526305,-1.0,0.01666666666666683,-0.23333333333333317,0.125,-0.050000000000000044,0.08000000000000007,0.23529411764705888,0.5789473684210527,0.6666666666666667,0.7407407407407407,0.8999999999999999,0.0,0.46666666666666656,0.0,0,"Kingsway, Covent Garden",51.514409,-0.118478,16,POINT (699932.309677859 5710968.471359404),1
"Lambeth North Station, Waterloo",0.0,0.0,0.0,0.0,0.0,0.0,0.3571428571428572,0.28928571428571415,1.3210526315789473,1.412121212121212,0.48571428571428577,0.07843137254901977,0.07236842105263164,0.11688311688311681,-0.07758620689655182,0.20779220779220786,0.4427001569858713,0.5188679245283021,1.0807043286867206,0.4204545454545454,0.19354838709677424,0.2705882352941178,0.26428571428571423,-0.24242424242424243,0,"Lambeth North Station, Waterloo",51.49914,-0.112031,20,POINT (700446.5746796948 5709288.478944284),1
"Leman Street, Aldgate",0.16666666666666674,0.0,0.0,0.0,0.0,0.0,0.47058823529411775,1.349425287356322,2.253820033955858,0.7200000000000002,0.40909090909090917,0.4880382775119618,0.7058823529411764,0.4421052631578948,0.2761904761904761,0.21818181818181803,0.13137254901960782,0.7065826330532214,0.5414285714285716,0.23076923076923084,0.49672667757774147,0.14715719063545163,0.06666666666666665,-0.09803921568627438,0,"Leman Street, Aldgate",51.512363,-0.069542,37,POINT (703336.1520216146 5710875.885859975),1
"Long Lane , Bermondsey",0.0,0.0,0.0,0.0,0.0,0.7666666666666666,0.46341463414634143,1.2400000000000002,4.0,0.8882575757575759,0.3448275862068966,0.5675675675675675,0.5111111111111111,0.40390390390390385,0.3604395604395605,-0.059523809523809534,0.6830769230769231,0.8106060606060608,0.9145267791636096,0.41422287390029333,-0.023809523809523947,0.08205128205128198,-0.33333333333333326,0.19999999999999996,0,"Long Lane , Bermondsey",51.499075,-0.085666,20,POINT (702276.4370427174 5709353.81423196),1
"Mallory Street, Marylebone",0.0,0.0,0.0,0.0,0.0,0.0,0.0,0.0,1.127659574468085,1.2321428571428572,-0.9313725490196076,0.41666666666666674,0.10666666666666669,-0.02298850574712641,0.24,0.1428571428571428,0.022222222222222365,-0.4179894179894179,0.2068965517241379,0.0,0.2279411764705883,0.6000000000000001,0.33333333333333326,-0.5,0,"Mallory Street, Marylebone",51.525051,-0.166304,20,POINT (696568.7049591888 5712022.047996931),1
"Marylebone Lane, Marylebone",0.0,0.0,0.0,0.0,0.0,0.0,0.09090909090909083,0.05011655011655014,0.48430141287284134,0.04796747967479664,0.25,0.1785714285714286,0.6230769230769231,0.6116959064327485,0.7329192546583851,0.589430894308943,0.7235294117647058,2.0169956140350878,0.8771929824561404,0.7871148459383752,0.5333333333333334,0.6474358974358974,0.5,-0.39473684210526305,0,"Marylebone Lane, Marylebone",51.514759,-0.148105,24,POINT (697875.5287661741 5710926.824546779),1
"Millbank Tower, Pimlico",0.0,0.0,0.0,0.0,0.0,0.0,-0.125,0.02499999999999991,0.7828571428571431,0.14538043478260865,-0.014705882352941124,0.574074074074074,0.6280701754385964,0.43018018018018034,0.5526315789473686,0.7179487179487181,0.9795918367346939,2.0384180790960453,1.6953781512605042,0.35833333333333317,0.05681818181818188,0.25,0.6666666666666667,-0.8,0,"Millbank Tower, Pimlico",51.491884,-0.125674,24,POINT (699531.525412826 5708444.454331138),1
"New Fetter Lane, Holborn",0.0,0.0,0.0,0.0,0.0,0.0,0.04807692307692313,-1.1346153846153846,-2.701754385964912,0.04761904761904767,0.08730158730158744,0.5079365079365081,1.4162895927601808,0.9487179487179487,0.5560897435897436,0.43999999999999995,2.833333333333333,8.432539682539682,4.769230769230769,0.7252252252252251,0.4166666666666665,0.06666666666666665,0.25,-0.6000000000000001,0,"New Fetter Lane, Holborn",51.517428,-0.107987,21,POINT (700646.8076157956 5711332.855618714),1
"New Inn Yard, Shoreditch",0.1428571428571428,0.0,0.0,0.0,0.0,0.4545454545454546,0.3214285714285714,0.685354691075515,0.9114035087719299,0.1493993993993994,0.15625,0.277056277056277,-0.22745098039215694,0.07894736842105265,0.22580645161290325,0.6000000000000001,0.36923076923076925,1.503968253968254,0.9981203007518797,0.49369747899159644,0.867216117216117,0.1647727272727273,0.5769230769230769,0.125,0,"New Inn Yard, Shoreditch",51.524526,-0.079248,20,POINT (702608.8015210904 5712201.246458163),1
"New North Road 2, Hoxton",0.0,0.0,0.0,0.0,0.0,0.0,0.5869565217391304,0.2647058823529411,1.9821428571428572,1.128540305010893,0.36111111111111116,0.319047619047619,-0.056451612903225756,0.15555555555555567,-0.49473684210526314,0.28333333333333344,0.22571428571428576,-0.004385964912280604,0.3717948717948718,0.31897926634768736,-0.005952380952380931,-0.21403508771929824,-0.005347593582887722,0.125,0,"New North Road 2, Hoxton",51.53114,-0.086016,22,POINT (702110.1000406959 5712917.8729747),1
"Norton Folgate, Liverpool Street",0.18181818181818188,0.0,0.0,-1.0,0.0,0.0,-0.1428571428571428,-1.6873638344226578,0.04863669859985276,-0.07259259259259254,0.11961722488038284,0.11111111111111094,0.019047619047619202,0.7626262626262625,0.42307692307692313,0.5071428571428571,1.1199999999999999,2.586206896551724,1.9503448275862068,0.9032882011605416,0.704301075268817,0.5952380952380951,0.5384615384615385,0.41666666666666674,0,"Norton Folgate, Liverpool Street",51.521113,-0.078869,23,POINT (702650.2455996855 5711822.835067925),1
"Nutford Place, Marylebone",0.0,0.0,0.0,0.0,0.0,0.0,0.0,0.0,0.0,1.2222222222222223,0.0,0.0,0.5714285714285714,0.5,-0.25,0.02499999999999991,0.4666666666666668,-0.05714285714285716,1.0,-0.5833333333333333,0.0,0.0,0.0,0.5,0,"Nutford Place, Marylebone",51.516517,-0.164393,18,POINT (696738.0342662818 5711078.349632727),1
"Ontario Street, Elephant & Castle",0.19999999999999996,-1.0,0.0,0.0,0.0,0.0,0.37037037037037046,0.4137931034482758,3.223529411764706,0.45819618169848586,0.5179487179487179,0.2272727272727273,0.625,0.3315217391304348,0.42763157894736836,0.27642276422764245,0.6679841897233201,0.20326576576576572,0.8926728586171309,0.20606060606060606,0.23399014778325133,0.26,0.19047619047619047,-0.033333333333333215,0,"Ontario Street, Elephant & Castle",51.49652,-0.101384,15,POINT (701196.9570311696 5709026.407178416),1
"Park Lane, Mayfair",-0.8461538461538463,0.0,0.0,0.0,0.0,0.0,0.0,0.0,-0.16666666666666674,0.13214285714285712,0.17045454545454541,0.25,0.35833333333333317,0.2333333333333334,0.35543766578249336,-0.06666666666666665,-0.25,0.7941176470588236,0.2857142857142858,0.23750000000000004,-0.03947368421052633,-0.0625,0.3157894736842106,0.4782608695652173,0,"Park Lane, Mayfair",51.505426,-0.150817,18,POINT (697727.8168774513 5709881.824694509),1
"Pitfield Street Central, Hoxton",0.2571428571428571,0.0,0.0,0.0,0.0,-0.5,0.36363636363636354,0.827672955974843,4.193548387096774,2.308333333333333,0.2836879432624113,0.8235294117647058,0.3220720720720722,0.4442307692307692,0.3571428571428572,0.002564102564102555,0.2881944444444444,0.496894409937888,-0.0959595959595958,-0.002331002331002363,0.15530303030303028,0.2596153846153846,0.21652421652421672,0.09090909090909083,0,"Pitfield Street Central, Hoxton",51.53213,-0.08299,30,POINT (702315.5471798282 5713036.309823118),1
"Portugal Street, Holborn",0.0,0.0,0.0,0.0,0.0,0.0,0.0,0.0,-0.8,-0.8400000000000001,-0.17307692307692313,-0.15000000000000013,0.2056451612903225,0.5772113943028485,1.146190803019904,1.62,1.6332288401253918,3.6088657105606257,2.5290381125226857,1.1369047619047619,0.4444444444444444,0.0,0.0,0.0,0,"Portugal Street, Holborn",51.514943,-0.116146,16,POINT (700091.7418996827 5711034.218973272),1
"Queen Street 2, Bank",0.19999999999999996,0.0,0.0,0.0,0.0,0.0,-0.6482683982683983,-2.5190415062045357,-1.8649940262843487,-0.48385899814471234,0.12279226240538277,-0.28701298701298694,0.5708333333333333,1.1761006289308178,0.7304964539007093,0.6862745098039214,2.323728813559322,7.468368902439025,6.8395579268292686,4.209259259259259,2.7040816326530615,1.451737451737452,0.20909090909090922,0.46153846153846145,0,"Queen Street 2, Bank",51.511246,-0.093051,36,POINT (701710.1819755924 5710686.609594937),1
"Rampayne Street, Pimlico",0.0,0.0,0.0,0.0,0.0,0.0,0.5454545454545454,1.1400000000000001,4.016544117647059,1.5681818181818181,0.5681818181818181,0.797979797979798,0.5125,-0.23938223938223935,0.5625,0.3142857142857143,0.8363636363636362,0.8385913426265592,0.25303030303030294,-0.004761904761904745,-0.09523809523809534,0.0844155844155845,0.4464285714285714,0.8275862068965518,0,"Rampayne Street, Pimlico",51.489975,-0.132845,21,POINT (699042.1364899756 5708212.677901914),1
"Regency Street, Westminster",0.0,0.0,0.0,1.0,0.0,0.0,0.0,1.9175438596491228,2.9588377723970942,1.277777777777778,0.3846153846153846,1.2678571428571428,0.5757575757575759,0.4545454545454546,0.24146341463414633,0.40625,0.5649350649350651,0.7727272727272727,0.616557734204793,0.44047619047619047,0.1517857142857142,0.028846153846153744,-0.2857142857142858,-0.3194444444444444,0,"Regency Street, Westminster",51.49206,-0.132224,22,POINT (699076.1522235565 5708446.181571564),1
"River Street , Clerkenwell",0.0,0.0,0.0,0.0,0.0,0.0,0.8200000000000001,1.0196078431372548,2.5166666666666666,1.048611111111111,0.6071428571428572,0.5,0.12807881773399,-0.1071428571428572,0.2727272727272727,0.16666666666666674,0.02666666666666684,0.47333333333333316,0.5518518518518518,0.52073732718894,-0.12171052631578938,-0.36153846153846136,-0.3035714285714286,-0.1428571428571428,0,"River Street , Clerkenwell",51.529163,-0.10997,19,POINT (700457.6895490855 5712632.1372792665),1
"Sackville Street, Mayfair",0.0,0.0,0.0,0.0,0.0,0.0,-0.3928571428571428,-0.4186046511627908,-1.0407239819004526,-0.023809523809523725,0.3904761904761904,0.27819548872180455,0.4331550802139037,0.3666666666666667,0.9720279720279719,1.0625,1.5142857142857145,2.3193650793650793,2.3205200678349347,1.077777777777778,0.8076923076923077,0.10000000000000009,0.0,0.0,0,"Sackville Street, Mayfair",51.510048,-0.138846,18,POINT (698538.3243180409 5710428.131572438),1
"Sadlers Sports Centre, Finsbury",0.0,0.0,1.0,0.0,1.0,0.17647058823529416,0.2702702702702702,0.4750000000000001,2.4724824355971897,1.2774509803921568,0.6933333333333334,0.4799054373522458,0.4104308390022675,0.4346938775510203,0.4736842105263157,0.32285714285714273,0.41333333333333333,1.608695652173913,1.9549214226633582,1.2315541601255888,0.17460317460317465,0.3913043478260869,0.10909090909090913,0.18181818181818166,0,"Sadlers Sports Centre, Finsbury",51.524868,-0.099489,17,POINT (701203.4727373193 5712183.392274016),1
"Sancroft Street, Vauxhall",0.0,0.0,0.0,0.0,0.0,0.0,0.30000000000000004,0.53125,1.1666666666666667,0.4196428571428572,0.2857142857142858,0.3529411764705883,0.1512605042016808,0.10576923076923084,0.5555555555555556,0.2857142857142858,0.1923076923076923,0.020220588235294157,0.1205128205128203,-0.07792207792207773,-0.41666666666666674,0.30000000000000004,0.2857142857142858,-0.1428571428571428,0,"Sancroft Street, Vauxhall",51.489479,-0.115156,24,POINT (700272.0753658137 5708205.796742623),1
"Sedding Street, Sloane Square",0.0,0.0,0.0,0.0,0.0,0.0,0.6153846153846154,0.33266129032258074,1.8926728586171309,0.8541666666666667,0.631578947368421,0.8235294117647058,0.5530145530145529,0.3131868131868132,0.30000000000000004,0.30833333333333335,0.49248120300751874,0.679245283018868,0.4391304347826086,0.6000000000000001,0.2142857142857142,0.24,0.2272727272727273,0.0,0,"Sedding Street, Sloane Square",51.49313,-0.156876,27,POINT (697360.5455241217 5708498.365484301),1
"Seymour Place, Marylebone",0.14285714285714302,-0.050000000000000044,0.0,0.0,0.0,0.0,0.11111111111111116,0.8823529411764706,3.55,1.8958944281524925,0.7166666666666668,0.6153846153846154,0.3114035087719298,0.23529411764705888,0.5549549549549551,0.14058355437665782,0.17056277056277058,-0.6082171680117388,-0.0625,0.3480392156862744,0.005434782608695565,0.050505050505050386,-0.0923076923076922,-0.16666666666666674,0,"Seymour Place, Marylebone",51.520331,-0.163667,29,POINT (696771.9496224415 5711504.354453924),1
"Shoreditch High Street, Shoreditch",0.30000000000000004,-1.3333333333333333,0.0,1.0,0.0,0.0,0.125,0.7807017543859649,3.379637618636756,1.1425925925925926,0.2848932676518885,0.25714285714285734,0.9128540305010895,1.0877005347593582,0.2232142857142858,0.5174216027874565,1.1613756613756612,1.3737734165923283,1.45421831267493,0.3642960812772136,0.6524390243902438,0.11868686868686851,0.5154440154440156,0.4339080459770115,0,"Shoreditch High Street, Shoreditch",51.526377,-0.07813,41,POINT (702678.1171697058 5712410.140615334),1
"Sloane Avenue, Knightsbridge",0.5,0.0,0.0,0.0,0.0,0.0,0.21052631578947367,0.261861861861862,0.5,0.875,0.4782608695652173,0.2142857142857142,0.40909090909090917,0.4431818181818181,0.07258064516129026,0.30268199233716464,0.1333333333333333,0.35185185185185186,0.6186868686868687,-0.1454545454545455,0.11111111111111116,-0.16666666666666674,0.0,0.0,0,"Sloane Avenue, Knightsbridge",51.493184,-0.167894,27,POINT (696595.619012146 5708474.708891229),1
"Snowsfields, London Bridge",0.25,0.25,0.0,1.0,0.0,0.0,0.3600000000000001,0.8067528735632186,1.982642237222758,1.3819875776397514,0.3017408123791103,0.09090909090909105,0.12721417069243168,0.7407692307692308,0.4901960784313726,0.25125125125125125,0.9313725490196081,1.3166797797010228,0.8199556541019957,0.5708206686930093,0.5535714285714286,0.5084427767354598,0.7666666666666666,0.059523809523809534,0,"Snowsfields, London Bridge",51.502153,-0.083632,31,POINT (702403.9403159893 5709701.654713543),1
"Southampton Street, Strand",-0.25,0.0,0.0,0.0,0.0,0.0,0.0,0.02722323049001818,-0.20571428571428574,0.3701923076923077,0.6842105263157894,0.7777777777777777,0.6655052264808361,0.7960784313725489,0.8194444444444444,0.618421052631579,1.9248768472906403,2.0611010284331517,1.1595238095238094,0.8702830188679247,0.8392857142857142,0.826086956521739,0.8300000000000001,0.7272727272727273,0,"Southampton Street, Strand",51.510701,-0.121723,14,POINT (699723.4248797004 5710547.344197414),1
"Southwark Street, Bankside",0.0,0.0,0.0,0.0,0.0,0.0,0.25,0.10439560439560425,-0.049535603715170407,-0.32068965517241366,1.0,0.22282608695652173,0.5217391304347827,0.568840579710145,0.04166666666666674,0.17460317460317465,0.8666666666666667,2.7420578473210053,1.294871794871795,0.4906976744186047,0.32000000000000006,0.0,0.0,0.0,0,"Southwark Street, Bankside",51.505409,-0.098341,23,POINT (701368.9312567082 5710023.07006454),1
"St Mary's Hospital, Paddington",0.25,0.0,0.0,1.0,-0.5,0.0,-0.3415094339622642,0.6235294117647059,3.409538825384312,1.4075757575757575,0.26666666666666683,0.36467236467236486,0.5681818181818181,0.5428571428571429,0.33873873873873883,0.31403508771929833,0.6119909502262444,1.5881226053639845,1.4218500797448164,0.11601307189542465,0.4666666666666668,0.17391304347826098,0.06944444444444442,0.05555555555555558,0,"St Mary's Hospital, Paddington",51.518268,-0.171103,20,POINT (696265.0407447156 5711255.00555524),1
"St. Chad's Street, King's Cross",0.5,0.0,0.0,0.0,0.0,0.0,0.0,0.47430830039525707,2.2435897435897436,0.9444444444444444,0.5833333333333333,0.7037037037037037,0.7741935483870968,0.2333333333333334,0.3918495297805644,0.04761904761904767,0.057777777777777706,0.2374517374517373,0.24805194805194808,0.3285714285714285,0.13809523809523805,0.16666666666666674,0.15384615384615374,0.22222222222222232,0,"St. Chad's Street, King's Cross",51.530059,-0.120973,23,POINT (699690.7244891608 5712701.654961897),1
"St. George Street, Mayfair",0.0,0.0,0.0,0.0,0.0,0.0,0.0,-0.9534883720930232,-0.38602941176470584,-0.04022988505747116,0.34444444444444455,0.05833333333333335,0.4444444444444444,0.17045454545454541,0.31351351351351364,0.26515151515151514,0.7918660287081338,2.2777053455019556,1.3175122749590833,0.7419354838709677,0.0,0.0,0.0,-0.33333333333333326,0,"St. George Street, Mayfair",51.51196,-0.142783,18,POINT (698256.8784178469 5710630.034773718),1
"St. James's Square, St. James's",0.0,0.0,0.0,0.0,0.0,0.0,-0.8846153846153846,-1.017857142857143,-0.40470425458318937,0.3675324675324676,0.3152337858220209,0.7142857142857142,1.1859564164648908,1.7639553429027113,0.8703225806451613,1.3538983050847457,3.5048643113159246,7.2603850050658565,4.074935400516797,1.5606060606060603,0.5666666666666667,0.25,0.125,0.22222222222222232,0,"St. James's Square, St. James's",51.507424,-0.134621,40,POINT (698842.8755815497 5710147.864497575),1
"St. John Street, Finsbury",0.0,0.0,0.0,0.0,0.0,0.0,0.0,0.2333333333333334,3.7905869910100476,0.8094948265368231,0.23902439024390243,0.5,0.3813131313131315,-0.017857142857142794,0.33333333333333326,0.3776223776223777,0.3564814814814814,0.6930434782608696,0.3152173913043479,0.23732251521298164,-0.04761904761904745,0.1875,0.10196078431372557,0.25,0,"St. John Street, Finsbury",51.52836,-0.104724,18,POINT (700825.0268352113 5712557.2505305745),1
"St. John's Wood Church, The Regent's Park",0.0,0.0,0.0,0.0,0.0,0.0,0.0,0.3783783783783783,0.44654088050314455,0.9361702127659575,0.4285714285714286,0.20769230769230762,0.5789473684210527,0.0,0.8571428571428572,0.5238095238095237,0.28260869565217384,0.1333333333333333,0.08952380952380956,-0.18055555555555558,0.4375,0.375,0.22222222222222232,0.2727272727272727,0,"St. John's Wood Church, The Regent's Park",51.530529,-0.167515,50,POINT (696461.1229211341 5712627.855651676),1
"St. Martin's Street, West End",0.10526315789473695,0.0,0.0,0.0,0.0,0.0,0.0,0.0,-0.2666666666666666,-0.15384615384615374,0.0,-0.5999999999999999,0.3055555555555556,0.09027777777777768,0.2222222222222221,0.17293233082706783,0.3492063492063491,0.32820512820512815,0.7455197132616487,0.48484848484848486,0.17307692307692313,0.7777777777777777,0.8285714285714285,0.0,0,"St. Martin's Street, West End",51.509087,-0.129697,18,POINT (699177.2562308022 5710346.1555585805),1
"Stamford Street, South Bank",0.16666666666666674,0.08333333333333326,0.0,0.0,-1.0,-0.7391304347826086,0.16666666666666674,2.002659574468085,4.092774308652988,2.024154589371981,-0.08571428571428563,0.11208791208791191,0.5,0.1696428571428572,0.6118881118881119,-0.18571428571428572,0.24426450742240213,0.7344858156028367,0.31666666666666643,0.3137254901960784,-0.03333333333333344,0.1166666666666667,-0.42307692307692313,-0.12222222222222223,0,"Stamford Street, South Bank",51.505569,-0.111606,27,POINT (700447.8419663649 5710004.430050333),1
"Strand, Strand",1.0,0.6666666666666667,0.0,0.5,0.0,0.0,0.0,-0.125,-1.355600539811066,-1.2414529914529915,-0.1521918941273781,0.6392045454545454,1.0856481481481484,1.4863157894736843,1.1807101218865927,1.9144237405106972,2.5277777777777777,5.147004608294931,4.707142857142857,2.0600649350649354,1.124401913875598,0.9523809523809523,0.3500000000000001,0.0,0,"Strand, Strand",51.512582,-0.115057,35,POINT (700177.6408596024 5710774.6980508175),1
"Sun Street, Liverpool Street",0.18181818181818188,0.16666666666666674,0.0,0.0,0.0,0.0,-0.13423645320197042,0.8261904761904759,-0.12781328146707382,-0.23396226415094334,0.2857142857142858,0.1333333333333333,0.5266666666666668,0.5196078431372548,0.3748079877112134,0.6142857142857141,1.2672413793103448,5.25108225108225,3.3015873015873014,0.6636363636363636,0.42105263157894735,-0.10909090909090913,0.33333333333333326,0.2142857142857142,0,"Sun Street, Liverpool Street",51.520009,-0.083935,24,POINT (702303.7605494669 5711686.0667873),1
"Swan Street, The Borough",0.07692307692307687,-0.8095238095238093,0.19999999999999996,-3.666666666666667,0.0,0.0,0.08333333333333326,2.39016393442623,2.382172131147541,0.8083333333333333,0.253191489361702,0.6463963963963966,0.7271062271062272,0.13928571428571423,0.4444444444444444,0.48798076923076916,0.47115384615384626,1.040909090909091,0.7436274509803924,0.14165103189493422,-0.004273504273504258,-0.05217391304347818,0.1708683473389354,0.2666666666666666,0,"Swan Street, The Borough",51.500296,-0.092762,27,POINT (701778.6216513645 5709469.971805068),1
"Tanner Street, Bermondsey",0.3571428571428572,0.0,0.0,0.25,0.0,0.0,0.839481555333998,1.1041666666666665,4.228888888888889,3.548387096774194,0.6971428571428573,0.627039627039627,1.2448275862068963,0.8200000000000001,0.21904761904761916,0.3564993564993564,0.8457556935817807,0.9797149122807016,0.7291666666666665,0.20671494404213298,0.18322981366459623,0.14950980392156854,0.27601809954751144,0.16666666666666674,0,"Tanner Street, Bermondsey",51.500647,-0.0786,41,POINT (702759.794276841 5709548.149848734),1
"Taviton Street, Bloomsbury",0.4347826086956521,0.0,0.1333333333333333,-1.0,0.0,0.0,0.0,-0.08333333333333326,0.9155844155844155,0.5434472934472934,0.19805194805194803,0.38888888888888884,0.3913043478260869,0.6833216045038704,0.872463768115942,1.1103896103896103,1.7416666666666667,2.088461538461538,1.8422425032594525,2.1273584905660377,1.0396825396825398,1.0138888888888888,0.9015873015873015,0.7105263157894737,0,"Taviton Street, Bloomsbury",51.52505,-0.131161,30,POINT (699006.0630774255 5712116.973011884),1
"The Tennis Courts, The Regent's Park",0.0,0.0,0.0,0.0,0.0,0.0,0.0,-0.11111111111111116,0.34561403508771926,0.5811965811965811,0.11910669975186106,-0.09615384615384626,0.47712418300653603,0.5,0.007575757575757569,0.6346153846153846,0.4122807017543859,0.6641414141414141,0.46964285714285725,0.11764705882352944,0.1428571428571428,0.0,0.0,0.0,0,"The Tennis Courts, The Regent's Park",51.525367,-0.153463,16,POINT (697457.9308329399 5712091.771370863),1
"Tooley Street, Bermondsey",0.1696428571428572,-2.0,0.6666666666666667,0.0,0.0,0.0,0.39492753623188404,2.371621621621622,2.5130183220829316,2.7961997019374074,1.5394511149228132,1.0397163120567374,0.9860742705570291,0.6607142857142856,0.8773584905660377,0.7903726708074534,1.2118598382749324,3.006944444444444,3.6277915632754345,1.389233954451346,1.05103668261563,0.6846504559270519,0.8295238095238096,0.6176470588235294,0,"Tooley Street, Bermondsey",51.503493,-0.07962,27,POINT (702676.3816705614 5709861.744373421),1
"Triangle Car Park, Hyde Park",0.0,0.0,0.0,0.0,0.0,-0.1333333333333333,0.0,0.0,0.11904761904761907,-0.11471861471861455,-1.1525974025974026,-0.41025641025641013,0.25084459459459474,0.7515151515151515,0.8892857142857142,0.17777777777777803,0.07446808510638281,0.808464849354376,0.07575757575757569,0.2395604395604396,0.0,-0.19999999999999996,-1.5,0.16666666666666674,0,"Triangle Car Park, Hyde Park",51.506451,-0.170279,27,POINT (696373.0306084738 5709943.366742465),1
"Tyers Gate, Bermondsey",0.0,0.0,0.0,0.0,0.0,0.0,0.0,0.7,2.306451612903226,1.4008658008658008,0.930232558139535,0.558974358974359,0.3813131313131315,0.473913043478261,-0.05747126436781591,0.4064039408866995,0.5,0.8571428571428572,0.6482954545454547,0.21531100478468912,-0.05533596837944654,-0.12307692307692308,0.35897435897435903,0.5,0,"Tyers Gate, Bermondsey",51.500889,-0.083159,36,POINT (702442.3654329994 5709562.430660647),1
"Tysoe Street, Clerkenwell",0.1428571428571428,0.0,0.0,0.0,0.0,0.0,0.0,0.8618881118881119,1.144122383252818,1.3972431077694236,0.6448170731707317,0.4930830039525691,0.22402597402597402,0.42935635792778637,0.4708333333333332,0.4166666666666665,0.5995297805642632,1.121031746031746,1.2824355971896957,0.1923076923076923,0.6314699792960663,0.4256965944272446,0.17803030303030298,0.20454545454545459,0,"Tysoe Street, Clerkenwell",51.526443,-0.109256,20,POINT (700519.160004088 5712331.67972695),1
"Union Street, The Borough",0.0,0.0,0.0,0.0,0.0,0.0,0.07692307692307687,1.0933806146572105,1.8912466843501328,0.9273809523809522,0.5085470085470085,0.28936170212765955,0.33725490196078445,0.3580562659846547,0.5,0.4193548387096775,0.8925925925925926,1.9445754716981134,0.992753623188406,0.17013888888888884,0.4750000000000001,-0.09022556390977443,0.12030075187969924,0.26190476190476186,0,"Union Street, The Borough",51.503688,-0.098497,17,POINT (701365.6975495903 5709831.297550218),1
"Victory Place, Walworth",0.0,0.0,0.0,0.0,0.0,0.0,0.0,1.0350877192982457,4.245901639344262,0.2962962962962963,0.18518518518518512,0.1578947368421053,0.1428571428571428,0.19999999999999996,0.4375,-0.05714285714285716,0.16666666666666674,0.1556776556776558,0.18253343823760804,0.06763925729442954,0.07051282051282048,-0.006535947712418277,-0.09090909090909083,-0.125,0,"Victory Place, Walworth",51.492807,-0.091938,24,POINT (701868.9012705327 5708639.609396043),1
"Walnut Tree Walk, Vauxhall",0.0,0.0,0.0,0.0,0.0,0.0,0.0,1.5762711864406778,4.904713114754099,1.5416666666666665,0.40909090909090917,0.30541871921182273,0.09677419354838701,0.03571428571428581,0.2999999999999998,0.16600790513833985,0.05443548387096775,0.14166666666666683,0.4444444444444444,0.044848484848484915,0.23355263157894735,0.11904761904761907,-0.04444444444444451,0.03571428571428581,0,"Walnut Tree Walk, Vauxhall",51.493686,-0.111014,20,POINT (700541.0962570903 5708684.881665021),1
"Walworth Square, Walworth",0.0,0.0,0.0,0.0,0.0,0.0625,0.4285714285714286,1.0247252747252749,6.140762463343108,2.918032786885246,0.5723076923076922,0.2908653846153846,0.5887096774193548,0.46138996138996147,0.5631578947368421,0.7290552584670231,0.5974512743628186,0.5275263951734541,0.6851851851851851,0.7981703830760436,0.20107962213225372,-0.04761904761904767,-0.18627450980392157,0.0,0,"Walworth Square, Walworth",51.491327,-0.096518,24,POINT (701557.5633142444 5708462.435435304),1
"Waterloo Road, South Bank",-0.8181818181818181,-1.0,0.0,0.33333333333333326,-0.5,-0.5,0.5106382978723405,3.6363636363636367,3.1580459770114944,1.2719298245614035,0.07391304347826089,0.3529411764705883,-0.06060606060606055,0.19047619047619047,0.75,0.42324561403508776,-0.40527950310559024,0.022321428571428603,-0.17554858934169282,0.09907120743034059,0.2928571428571427,0.357142857142857,0.23529411764705888,-0.33333333333333326,0,"Waterloo Road, South Bank",51.50486,-0.113001,15,POINT (700354.1619836745 5709921.780918404),1
"Waterloo Station 2, Waterloo",0.19999999999999996,0.0,0.0,0.0,0.0,0.0,9.916666666666668,23.735897435897435,21.473958333333332,12.175141242937853,4.9399999999999995,0.9652173913043476,0.9090909090909092,1.1724137931034484,0.36363636363636354,-0.02941176470588225,-0.8333333333333335,-2.664473684210526,-0.3259803921568625,-0.7280701754385965,-0.5490196078431373,0.46198830409356706,-0.15835777126099693,0.0219780219780219,0,"Waterloo Station 2, Waterloo",51.503919,-0.113426,48,POINT (700328.8019102656 5709815.995108536),1
"Waterloo Station 3, Waterloo",0.0,0.0,0.0,0.0,0.0,0.0,17.43951612903226,51.844271412680754,77.81129807692308,11.259968102073366,3.659574468085107,1.1047008547008548,0.8981818181818182,1.183599419448476,0.5276412776412778,-1.0615763546798032,-10.05225806451613,-22.03439153439153,-7.842431761786601,-0.821138211382114,-0.12285714285714278,-0.13505747126436773,-0.26,0.23809523809523814,1,"Waterloo Station 3, Waterloo",51.503791,-0.112824,35,POINT (700371.1346097592 5709803.412460054),1
"Wellington Row, Bethnal Green",0.0,0.0,0.0,0.0,0.0,0.0,0.0,1.0175438596491229,2.406451612903226,0.8392857142857144,0.4124423963133641,0.4285714285714286,0.29807692307692313,0.28671328671328666,0.24836601307189543,0.17647058823529416,0.17971014492753623,0.0714285714285714,0.31134259259259256,0.07017543859649122,-0.18571428571428572,-0.05238095238095242,0.06666666666666665,0.6666666666666667,0,"Wellington Row, Bethnal Green",51.528222,-0.069743,33,POINT (703251.554073999 5712638.545765805),1
"Wenlock Road , Hoxton",0.0,0.0,0.0,0.0,0.0,0.14893617021276606,0.0,2.4110169491525424,7.213098729227761,3.501587301587302,1.222222222222222,0.46464646464646475,1.3043478260869565,0.6443478260869566,0.23589743589743573,0.5812324929971988,0.45484949832775934,1.040786240786241,1.3936403508771928,0.33250865907966354,0.14109848484848486,-0.2315789473684211,-0.24603174603174605,-0.11111111111111116,0,"Wenlock Road , Hoxton",51.530991,-0.093903,28,POINT (701563.8326080084 5712879.539254069),1
"West Smithfield Rotunda, Farringdon",0.0,1.3333333333333335,0.0,0.0,0.0,0.0,0.125,-0.06342834203131265,3.022046353872244,1.1302052785923755,0.5201612903225807,0.7411764705882353,0.7142857142857144,0.7972222222222225,0.7555555555555555,0.9489795918367345,1.9470967741935485,2.7882187938288916,2.101679929266136,1.1318181818181818,0.6371428571428572,0.3288888888888888,0.576086956521739,0.41176470588235303,0,"West Smithfield Rotunda, Farringdon",51.518218,-0.100791,15,POINT (701142.4854662002 5711440.453220594),1
"William IV Street, Strand",0.036363636363636376,0.0,0.16666666666666674,0.0,0.0,0.0,0.32638888888888884,1.2930756843800322,2.743429612282071,0.9768081761006291,0.876095118898623,0.49347826086956537,0.8729662077596996,0.8215686274509804,1.598950524737631,1.482605945604048,1.3677024482109226,2.404590163934426,1.0012406947890815,1.2643678160919538,0.9230769230769229,1.3333333333333335,1.5392156862745097,0.18279569892473124,0,"William IV Street, Strand",51.509462,-0.124749,26,POINT (699518.9060619209 5710401.33233581),1
"Albany Street, The Regent's Park",-0.25,0.0,0.0,0.0,0.0,0.0,0.0,0.78,2.863492063492063,1.4204545454545454,0.9818181818181817,0.8,0.1376811594202898,0.5585585585585586,0.4883720930232558,0.09840425531914887,0.24493243243243246,0.08421052631578929,0.26923076923076916,0.6118012422360248,0.18693284936479126,0.22222222222222232,-0.04761904761904745,0.0,0,"Albany Street, The Regent's Park",51.528302,-0.144466,27,POINT (698069.173129901 5712442.420861086),3
"Aldersgate Street, Barbican",-0.33333333333333326,0.0,0.0,0.0,0.0,0.0,0.3027777777777776,0.7331511839708562,4.81968253968254,3.3478639930252836,1.1859649122807017,0.6666666666666667,0.8461538461538463,1.345029239766082,0.8965034965034966,1.4915254237288136,1.6622807017543861,3.2222222222222223,5.1925708699902255,1.7745849297573435,1.3703703703703705,1.2448979591836733,0.2652439024390243,0.36363636363636354,1,"Aldersgate Street, Barbican",51.520841,-0.09734,15,POINT (701370.28869462 5711741.5781393135),3
"Argyle Street, Kings Cross",0.25,1.0,0.16666666666666674,0.0,0.06666666666666665,-0.06730769230769229,1.1735849056603773,19.113095238095237,31.633680555555557,10.053349875930522,3.899453551912568,2.919458303635068,1.7327586206896552,0.8961038961038958,1.675974025974026,0.5921198668146503,0.8177387914230021,-1.081638418079096,-0.07368421052631602,0.5777664456909739,0.5329670329670328,0.43157894736842106,0.9722222222222223,0.6296296296296295,1,"Argyle Street, Kings Cross",51.529416,-0.123944,45,POINT (699487.5055428941 5712622.056573413),3
"Bankside Mix, Bankside",0.2857142857142858,0.33333333333333326,0.0,0.0,0.5,0.0,0.0,0.01401401401401392,-0.1334622823984526,-0.013605442176870763,0.15053763440860224,0.807936507936508,0.36904761904761907,0.27633378932968533,0.5784946236559141,0.7416267942583732,1.0714285714285716,4.0550887021475255,1.594924812030075,0.4646983311938382,0.616260162601626,0.8571428571428572,0.20538720538720545,-0.8181818181818181,0,"Bankside Mix, Bankside",51.505817,-0.100186,60,POINT (701239.1183860234 5710063.355235913),3
"Baylis Road, Waterloo",0.07894736842105265,0.0,0.0,0.0,0.0,0.0,1.1469945355191256,2.6959761549925485,8.206088992974237,3.7483606557377045,1.559322033898305,1.0955882352941175,0.8136363636363637,1.06312292358804,0.7261538461538461,0.5512572533849132,1.1238479262672814,2.0452380952380955,2.256862745098039,0.9885964912280703,0.9421252371916506,0.8636363636363638,0.959051724137931,0.6291793313069909,1,"Baylis Road, Waterloo",51.501444,-0.110699,22,POINT (700528.8896517177 5709548.29140042),3
"Bell Street , Marylebone",0.0,0.0,0.0,0.0,0.0,0.1200000000000001,0.43243243243243246,1.1886792452830188,5.380952380952381,1.634259259259259,0.5,0.4444444444444444,0.30000000000000004,0.627906976744186,0.7714285714285714,0.38095238095238093,0.17272727272727262,0.48809523809523814,0.18874999999999997,0.3827956989247312,-0.036199095022624306,0.125,0.1428571428571428,0.4285714285714286,0,"Bell Street , Marylebone",51.522029,-0.165842,18,POINT (696613.7691852789 5711687.29439667),3
"Blackfriars Station, St. Paul's",0.1428571428571428,-0.875,0.0,0.5,-0.06666666666666665,0.1875,0.19590643274853803,1.325816843074091,4.543276430068883,2.3142857142857145,0.6611764705882353,0.5849358974358974,0.5510638297872339,1.0,0.2899728997289972,0.38949275362318847,2.281779661016949,6.469545957918051,6.102150537634409,2.1889559965487493,1.0968379446640315,0.7356321839080462,0.2543103448275863,0.4761904761904763,1,"Blackfriars Station, St. Paul's",51.511934,-0.103078,35,POINT (701011.522699639 5710735.5013135085),3
"Bouverie Street, Temple",0.0,0.0,0.0,0.0,0.0,0.0,0.6000000000000001,-0.02910052910052907,-0.8836206896551724,-0.3993558776167472,0.5384615384615385,0.28,0.3859649122807016,0.3585858585858588,0.5090909090909093,0.41290322580645156,0.8518518518518516,4.698412698412699,4.389830508474576,2.2830188679245285,0.9487179487179487,0.3157894736842106,0.22222222222222232,0.1428571428571428,0,"Bouverie Street, Temple",51.513821,-0.107927,33,POINT (700666.8285649393 5710931.987707127),3
"Broadcasting House, Marylebone",0.0,0.0,0.0,0.0,0.0,0.0,-0.6666666666666667,0.03693181818181812,0.19298921417565484,0.4411764705882353,0.13636363636363646,0.3310023310023309,0.9534883720930232,0.9944444444444445,0.8478260869565217,0.8535714285714284,1.3981481481481481,3.0597701149425287,2.8354231974921635,1.007246376811594,0.41025641025641035,0.625,-0.30000000000000004,0.19999999999999996,0,"Broadcasting House, Marylebone",51.518117,-0.144228,18,POINT (698129.9010837389 5711310.670292128),3
"Carey Street, Holborn",0.0,0.0,0.0,0.0,0.0,0.0,0.0,-0.1428571428571428,-0.2946428571428572,-0.7095238095238094,-0.02051282051282044,0.07336956521739135,-0.05714285714285716,0.12063492063492043,-0.11904761904761907,0.6000000000000001,0.6630434782608696,2.14935064935065,2.7333333333333334,1.3201754385964914,1.057142857142857,0.3214285714285714,-0.7647058823529411,0.125,0,"Carey Street, Holborn",51.51501,-0.112753,16,POINT (700326.8209982925 5711050.954953334),3
"Charlbert Street, St. John's Wood",0.0,0.0,0.0,0.0,0.0,0.0,0.2777777777777777,0.8859649122807016,1.9847457627118645,0.7000000000000002,0.6206896551724137,0.46666666666666656,0.6176470588235294,0.16666666666666674,0.038961038961039085,0.04761904761904745,0.2857142857142858,0.3789473684210527,0.017595307917888547,0.32258064516129026,0.3055555555555556,0.5,0.0,0.08333333333333326,0,"Charlbert Street, St. John's Wood",51.5343,-0.168074,16,POINT (696406.1191667509 5713045.626331833),3
"Charles II Street, West End",0.1428571428571428,0.0,0.0,0.0,0.0,0.0,0.0,0.0,-0.3925925925925926,-0.1428571428571428,0.19999999999999996,0.3458646616541352,0.14076246334310838,0.34615384615384626,0.37784090909090917,0.2529411764705882,0.774390243902439,1.778450363196126,1.52987012987013,0.24,0.4196428571428572,0.375,0.803030303030303,0.0,0,"Charles II Street, West End",51.508446,-0.131961,24,POINT (699022.9759300154 5710268.726043618),3
"Charlotte Street, Fitzrovia",0.0,0.0,0.0,0.0,0.0,0.0,0.0,0.10000000000000009,0.8098290598290598,-0.026315789473684292,0.1166666666666667,0.4015151515151514,0.911764705882353,0.9584599797365756,0.8349358974358974,0.7222222222222223,0.2731092436974789,1.1840659340659343,1.843939393939394,1.3605200945626477,0.8794326241134753,0.5142857142857145,0.25,-0.8333333333333333,0,"Charlotte Street, Fitzrovia",51.51953,-0.135777,14,POINT (698709.9580700608 5711490.696136245),3
"Cheapside, Bank",0.0,0.0,0.0,0.0,0.0,0.0,-0.01025641025641022,0.6920634920634923,-0.691397849462366,-0.10416666666666652,0.5903448275862067,0.6545584045584043,1.7070707070707072,2.129032258064516,2.3212917350848388,2.5580645161290327,4.433189655172414,12.484375,7.548387096774192,3.7005772005772006,1.893617021276596,0.18571428571428572,0.19999999999999996,0.25,1,"Cheapside, Bank",51.51397,-0.09294,43,POINT (701705.8443718473 5710989.773688612),3
"Chelsea Green, Chelsea",0.0,0.0,0.0,0.0,0.0,0.0,0.0,0.7173913043478262,1.088888888888889,0.5853658536585367,0.28,0.2666666666666666,0.23076923076923084,0.1499999999999999,0.17391304347826098,0.0,0.605263157894737,0.08529411764705896,0.40740740740740744,-0.06593406593406592,0.0,0.0,0.0,-0.6666666666666667,0,"Chelsea Green, Chelsea",51.490664,-0.166485,15,POINT (696704.2608722919 5708198.315158906),3
"Concert Hall Approach 1, South Bank",0.6666666666666667,0.0,0.0,0.0,0.0,0.0,0.0,1.9545454545454546,3.590909090909091,1.9714285714285715,0.21739130434782616,0.36363636363636354,-0.039215686274509665,0.6875,0.16450216450216448,0.34615384615384626,0.10389610389610393,0.5862433862433862,0.5962732919254659,0.49242424242424243,0.21739130434782616,0.28846153846153855,0.10256410256410242,0.4545454545454546,0,"Concert Hall Approach 1, South Bank",51.505044,-0.115851,10,POINT (700155.606444915 5709934.437082032),3
"Cotton Garden Estate, Kennington",0.0,0.0,0.0,0.0,0.0,0.0,1.4333333333333331,0.9130434782608696,0.0,1.0566037735849059,0.7666666666666666,0.021739130434782705,0.3571428571428572,-0.18840579710144945,0.26086956521739135,0.36363636363636354,0.20833333333333326,0.20740740740740748,0.2661290322580645,0.45571658615136856,-0.31666666666666665,-0.028571428571428692,-0.10000000000000009,0.0,0,"Cotton Garden Estate, Kennington",51.490757,-0.106323,24,POINT (700879.5442850459 5708372.09889388),3
"Cromer Street, Bloomsbury",-0.20833333333333326,0.0,0.0,0.0,0.0,0.0,0.07692307692307687,0.19047619047619047,1.1176470588235294,2.395959595959596,1.2321428571428572,0.8292682926829269,0.33333333333333326,0.4411764705882353,-0.06578947368421062,0.4023809523809525,0.16532258064516125,0.5675990675990676,-0.18131868131868134,0.14574898785425083,0.07777777777777772,-0.12083333333333335,1.4166666666666667,1.5555555555555554,0,"Cromer Street, Bloomsbury",51.528279,-0.119558,28,POINT (699796.6470480636 5712507.615314662),3
"Curzon Street, Mayfair",0.07692307692307687,0.33333333333333326,0.0,0.0,0.0,0.0,0.0,-0.09523809523809534,0.01098901098901095,0.24,0.24,0.1428571428571428,0.3870967741935485,-0.06060606060606055,0.5806451612903225,0.2857142857142858,0.7777777777777777,1.536842105263158,0.5579710144927537,0.5400696864111498,0.48275862068965525,0.4285714285714286,0.46666666666666656,0.0,0,"Curzon Street, Mayfair",51.507069,-0.145904,16,POINT (698061.5783335255 5710077.787349085),3
"Denyer Street, Knightsbridge",0.0,0.0,0.0,0.0,0.0,0.0,0.0,0.5609756097560976,0.6666666666666667,0.28125,0.02499999999999991,0.3666666666666667,0.2272727272727273,0.22222222222222232,-0.2058823529411764,0.3125,0.2620967741935485,0.1506493506493507,0.5333333333333334,0.1428571428571428,0.19999999999999996,0.0,0.0,0.0,0,"Denyer Street, Knightsbridge",51.493583,-0.165101,30,POINT (696787.7454808357 5708526.578618364),3
"Eagle Wharf Road, Hoxton",0.6666666666666667,0.0,0.0,0.0,0.0,0.3902439024390243,1.9830508474576272,3.870967741935484,12.135110294117647,6.650625,1.4626623376623376,1.1400000000000001,1.377049180327869,0.7171428571428573,0.6092436974789917,0.5762527233115469,0.6653658536585367,1.263709677419355,2.0395894428152497,0.4322781525687598,0.19699812382739212,0.05434782608695654,0.5595238095238095,0.09090909090909083,1,"Eagle Wharf Road, Hoxton",51.53356,-0.09315,45,POINT (701604.6941804232 5713167.240571536),3
"Earnshaw Street , Covent Garden",0.4444444444444444,0.0,0.25,0.0,0.0,0.0,0.125,0.3055555555555556,0.5771428571428572,0.3130630630630631,0.41025641025641035,0.21190476190476182,0.4850427350427351,0.5416666666666667,0.6666666666666667,0.6307277628032346,1.54093567251462,2.1666666666666665,2.2562841530054643,1.1945812807881775,0.7708333333333333,0.8577235772357723,0.6794871794871795,1.0625,0,"Earnshaw Street , Covent Garden",51.516118,-0.128585,18,POINT (699223.7150822477 5711130.905426807),3
"Ebury Bridge, Pimlico",0.0,0.0,0.0,0.0,0.0,0.0,0.16666666666666674,0.0,1.1442307692307692,0.35964912280701755,0.2681818181818181,0.3870967741935485,0.3571428571428572,0.29965156794425085,0.6190476190476191,0.11111111111111116,0.28963414634146334,0.6024955436720143,0.09999999999999987,-0.02777777777777768,0.41666666666666674,0.23076923076923084,-0.20833333333333326,0.0,0,"Ebury Bridge, Pimlico",51.490491,-0.149186,29,POINT (697905.6952971604 5708225.725208079),3
"Falkirk Street, Hoxton",0.25,-0.25,0.0,0.0,0.0,0.33333333333333326,0.08695652173913038,0.0,2.5317460317460316,1.3469387755102042,0.5652173913043479,0.6631205673758864,0.0625,0.28181818181818197,0.3666666666666667,0.5027027027027027,0.6904761904761905,0.7333333333333334,0.5,0.5,0.29714285714285715,0.16666666666666674,-0.04117647058823537,-0.036363636363636376,0,"Falkirk Street, Hoxton",51.53095,-0.078505,26,POINT (702631.795360232 5712917.5333549045),3
"Farringdon Lane, Clerkenwell",0.0,0.0,0.0,0.0,0.0,0.0,0.0,0.33333333333333326,-0.07222222222222241,1.1620227038183695,-0.0714285714285714,0.19999999999999996,-0.09961685823754785,0.5681818181818181,0.4285714285714286,0.2272727272727273,-0.22222222222222232,3.1186113789778203,1.2689655172413794,0.5422297297297298,0.19444444444444442,0.5161290322580645,0.05769230769230771,0.3448275862068966,0,"Farringdon Lane, Clerkenwell",51.52352,-0.10834,16,POINT (700595.5384856656 5712009.206930471),3
"Fashion Street, Whitechapel",0.3999999999999999,0.0,0.0,0.0,0.0,0.0,0.0,0.08695652173913038,0.5909090909090908,0.8454545454545455,0.4782608695652173,0.18518518518518512,0.3846153846153846,0.22499999999999987,0.39473684210526305,0.23076923076923084,-0.050000000000000044,0.24242424242424243,0.23484848484848486,0.8798185941043082,0.6216216216216217,-0.04166666666666674,0.33333333333333326,0.0,0,"Fashion Street, Whitechapel",51.51838,-0.073438,30,POINT (703039.1018201876 5711534.038994044),3
"Finsbury Circus, Liverpool Street",0.0,0.0,0.0,0.0,0.0,0.0,0.12299465240641716,2.2456140350877196,7.159392789373815,1.6360392506690453,0.6904761904761905,0.7485928705440901,0.7647058823529411,0.5546129374337221,0.2152173913043478,0.2763285024154589,1.7678571428571428,5.376099706744869,5.743796526054591,2.8260188087774294,1.2088888888888887,0.6216216216216217,0.9583333333333333,0.38888888888888884,1,"Finsbury Circus, Liverpool Street",51.517075,-0.086685,33,POINT (702126.0100996032 5711352.258191065),3
"Finsbury Library , Finsbury",0.0,0.0,0.0,0.0,0.0,0.0,0.0,0.6666666666666667,1.558029689608637,0.8473684210526315,0.2832167832167831,0.42307692307692313,0.26801801801801806,0.6918918918918919,0.2571428571428571,0.8133333333333335,1.4182389937106918,1.6771752837326608,0.7028571428571428,0.823671497584541,0.43999999999999995,0.11363636363636354,0.050000000000000044,0.0,0,"Finsbury Library , Finsbury",51.526717,-0.104298,29,POINT (700861.8038857598 5712375.748676844),3
"Great Dover Street, The Borough",-0.5454545454545454,0.0,0.0,0.0,0.06666666666666665,0.0,0.5,2.2711864406779663,6.171385991058123,3.3559322033898304,1.1962264150943398,1.4705882352941178,1.0816326530612246,0.9720279720279719,0.7133258678611423,0.5,0.6702317290552584,0.5393772893772892,0.33333333333333326,0.2835026608611515,0.06518282988871227,0.4449715370018976,-0.07285714285714273,0.10416666666666674,0,"Great Dover Street, The Borough",51.497382,-0.089446,33,POINT (702021.6171476815 5709155.140769568),3
"Green Park Station, Mayfair",0.4444444444444444,0.0,0.0,0.0,0.0,0.0,0.0,-0.10763520678685046,0.9334733893557423,0.8012422360248446,0.8809523809523809,0.4500000000000002,1.0054347826086958,0.9786821705426354,1.2541666666666664,0.940705128205128,1.0392156862745099,1.7321428571428572,1.8125,1.309090909090909,0.9746031746031747,1.0714285714285716,0.2272727272727273,0.0,1,"Green Park Station, Mayfair",51.506613,-0.142844,28,POINT (698275.8695812235 5710035.377121996),3
"Hampstead Road, Euston",0.19999999999999996,0.10000000000000009,0.0,0.0,0.125,0.33333333333333326,0.0,0.45673076923076916,1.5344827586206895,1.5273338940285957,0.27222222222222214,0.6300211416490487,0.8463356973995271,0.9537414965986393,0.4464285714285714,1.0133333333333334,1.2894736842105263,3.6507936507936507,2.1333333333333337,1.1576923076923076,0.811529933481153,0.5461538461538462,0.34375,0.33333333333333326,1,"Hampstead Road, Euston",51.525542,-0.138231,54,POINT (698513.581574933 5712152.46139748),3
"Hardwick Street, Clerkenwell",0.0,0.0,0.0,0.0,0.0,0.0,0.125,0.6666666666666667,1.4285714285714284,1.0681818181818183,0.5625,0.6666666666666667,0.5476190476190477,0.7,0.09259259259259256,0.32000000000000006,0.32258064516129026,0.06666666666666665,0.4964539007092199,0.3870967741935485,0.009803921568627416,0.3377192982456141,0.30000000000000004,0.18181818181818188,0,"Hardwick Street, Clerkenwell",51.527842,-0.108068,30,POINT (700595.3992430664 5712490.481038712),3
"Hatton Garden, Holborn",0.0,0.0,0.0,0.0,0.0,0.0,0.0,0.22113022113022107,0.3090909090909091,0.3292806484295845,0.08522727272727271,0.5249999999999999,0.2360248447204969,0.5838095238095238,0.7836257309941519,0.8777777777777778,2.125292740046839,5.478908188585608,3.3129218900675026,1.7838765008576332,0.9750000000000001,0.8083333333333333,0.7,0.0,1,"Hatton Garden, Holborn",51.518825,-0.108028,28,POINT (700637.821377374 5711488.064081278),3
"Hop Exchange, The Borough",0.38095238095238093,0.16666666666666674,0.0,0.0,0.0,0.125,0.03181818181818197,0.5675675675675675,1.7529806259314455,1.1771826852531182,1.4666666666666666,1.3205741626794258,2.218782249742002,2.947916666666667,2.7509107468123863,1.7227272727272729,3.223473837209302,5.0175,3.3186141304347827,2.5102459016393444,1.4760928961748634,1.5792622133599203,1.856818181818182,0.5222222222222224,1,"Hop Exchange, The Borough",51.504627,-0.091773,56,POINT (701828.1054024887 5709954.22561128),3
"Houghton Street, Strand",1.0,0.0,0.0,0.0,0.0,0.0,0.0,-0.19999999999999996,-0.6761904761904762,-0.28787878787878785,-0.23557692307692313,0.04470588235294115,0.09890109890109877,0.5455486542443064,0.8311817279046676,1.1458333333333335,1.7884615384615385,2.9226190476190474,1.55052790346908,1.1111111111111112,0.6153846153846154,0.2666666666666666,0.0,0.0,0,"Houghton Street, Strand",51.51362,-0.116764,15,POINT (700054.6700387071 5710885.434993641),3
"Hoxton Street, Hoxton",0.0,0.0,0.0,0.0,0.0,0.0,0.3170731707317074,0.7083333333333333,1.2833333333333332,0.3389154704944177,0.558139534883721,0.23529411764705888,-0.1200000000000001,-0.08333333333333326,0.43333333333333335,-0.03703703703703698,0.059523809523809534,0.37142857142857144,0.6375,0.2941176470588236,-0.08333333333333326,-0.15909090909090917,0.41666666666666674,-0.33333333333333326,0,"Hoxton Street, Hoxton",51.52959,-0.0801,27,POINT (702527.2278630007 5712761.908508834),3
"Killick Street, King's Cross",0.0,1.0,0.0,0.0,0.0,0.0,0.0,0.0,0.4864864864864864,0.30000000000000004,0.3571428571428572,0.25,0.3157894736842106,0.3529411764705883,-0.05990783410138256,0.18095238095238098,0.017142857142857126,0.47146401985111663,0.25,-0.6428571428571428,0.4285714285714286,0.0,0.0,0.0,0,"Killick Street, King's Cross",51.5338,-0.118677,22,POINT (699833.5552142356 5713123.859345471),3
"King Edward Walk, Waterloo",0.0,0.0,0.0,0.0,0.0,0.0,0.0,0.30000000000000004,0.0,0.4814814814814814,0.24603174603174605,0.1499999999999999,0.36363636363636354,0.33333333333333326,0.20000000000000018,0.33333333333333326,0.19047619047619047,0.30434782608695654,0.30434782608695654,0.2777777777777777,-0.02777777777777768,0.33333333333333326,0.0,0.10000000000000009,0,"King Edward Walk, Waterloo",51.49775,-0.10988,22,POINT (700601.9475052847 5709139.831892676),3
"Knightsbridge, Hyde Park",0.0,0.22222222222222232,0.0,0.0,0.0,0.0,0.0,0.0,0.0,-2.928571428571429,0.23529411764705888,0.0,-0.16666666666666674,0.11111111111111116,0.3846153846153846,-0.2666666666666666,0.5394736842105263,0.5384615384615383,0.09999999999999987,0.4500000000000002,1.3333333333333335,0.1428571428571428,0.22222222222222232,0.028571428571428692,0,"Knightsbridge, Hyde Park",51.502757,-0.155349,43,POINT (697424.9033214339 5709572.839350017),3
"Lambeth Palace Road, Waterloo",-0.48888888888888893,0.5,0.0,0.0,0.0,0.0,0.3157894736842106,0.21203007518797,0.6795348837209303,1.366666666666667,0.6958333333333333,0.6642156862745097,0.6666666666666665,1.403846153846154,1.5174731182795698,1.361111111111111,2.490015360983103,5.109375,2.6948275862068964,1.3107769423558897,0.804761904761905,0.7064516129032257,0.6216216216216217,-1.0087719298245612,1,"Lambeth Palace Road, Waterloo",51.500089,-0.116628,35,POINT (700123.4102091623 5709381.406045355),3
"Millennium Hotel, Mayfair",0.0,0.0,0.0,0.0,0.0,0.0,0.0,-0.32352941176470584,-0.17500000000000004,0.1333333333333333,0.29370629370629375,0.22222222222222232,0.3076923076923077,0.0641025641025641,-0.08791208791208804,0.2272727272727273,0.5,0.5357142857142858,0.65625,0.0,0.0,0.0,0.0,0.0,0,"Millennium Hotel, Mayfair",51.510919,-0.151126,27,POINT (697682.5892949575 5710491.715465748),3
"New Cavendish Street, Marylebone",-0.08333333333333326,0.0,0.0,0.0,0.0,0.0,0.0,0.0490196078431373,0.8720930232558142,0.9206349206349205,0.5666666666666667,0.5945945945945945,0.8183760683760686,0.9190476190476191,0.08831168831168834,0.29166666666666674,0.6603174603174602,1.2107142857142856,0.8999999999999999,0.45238095238095255,0.1847826086956521,0.1875,0.375,0.0,0,"New Cavendish Street, Marylebone",51.519167,-0.147983,18,POINT (697864.8796515019 5711417.24760586),3
"New Globe Walk, Bankside",0.0,0.0,0.0,0.0,0.0,0.0,0.0,0.11428571428571432,0.41571194762684116,0.21640316205533594,-0.0625,0.16666666666666674,0.10833333333333317,0.3229813664596273,0.25,0.3859649122807016,0.4736842105263157,1.4121212121212123,1.0836120401337792,0.3055555555555556,0.2333333333333334,0.375,0.3545454545454545,0.5777777777777777,0,"New Globe Walk, Bankside",51.507385,-0.09644,19,POINT (701492.1098577491 5710247.99872348),3
"Panton Street, West End",0.16666666666666674,0.6666666666666667,0.0,2.0,0.0,0.0,0.0,0.11538461538461542,0.14349276974416014,0.0959595959595958,0.3600000000000001,-0.08260869565217388,0.47272727272727266,0.33333333333333326,0.8552380952380954,0.9666666666666668,1.0034965034965035,1.444331983805668,1.600596125186289,1.979757085020243,0.8835784313725492,0.20333333333333337,0.4883720930232558,0.826086956521739,0,"Panton Street, West End",51.509639,-0.13151,21,POINT (699049.0644819308 5710402.59342439),3
"Park Street, Bankside",0.0,-0.5,0.0,0.0,0.0,0.0,0.07692307692307687,0.11111111111111116,0.41929499072356213,0.030769230769230882,0.17582417582417564,-0.012820512820512997,-0.2727272727272727,0.326797385620915,0.34285714285714275,0.8174603174603174,-0.04176904176904195,0.20952380952380967,0.4578754578754578,-0.020689655172413612,0.6086956521739131,0.22222222222222232,0.19999999999999996,0.33333333333333326,0,"Park Street, Bankside",51.505974,-0.092754,18,POINT (701754.0854808401 5710101.280816227),3
"Pindar Street, Liverpool Street",0.0,0.0,0.0,0.0,0.0,0.0,0.0,0.8333333333333333,-0.7766798418972332,-0.07499999999999996,-0.2857142857142858,0.33333333333333326,-0.11904761904761907,0.33333333333333326,-1.3387096774193548,0.17647058823529416,0.6486486486486487,1.4807692307692308,1.4851851851851852,0.0,0.5641025641025641,0.0,0.0,0.0,0,"Pindar Street, Liverpool Street",51.520955,-0.083493,24,POINT (702330.2238314708 5711792.46688062),3
"Porchester Place, Paddington",0.0,0.0,0.0,0.0,0.0,0.0,0.0,2.1333333333333333,1.7719298245614035,-0.3857442348008382,0.4904761904761905,-0.1523809523809525,-0.16346153846153855,0.34834834834834827,0.8722222222222222,0.5,0.6952104499274312,0.9910414333706608,0.631578947368421,0.5130718954248366,0.125,0.23529411764705888,0.11111111111111094,0.09090909090909083,0,"Porchester Place, Paddington",51.514746,-0.165164,18,POINT (696692.1834554379 5710879.371178693),3
"Queen Mother Sports Centre, Victoria",0.0,0.0,0.0,0.0,0.0,0.0,0.0,1.08,1.9500000000000002,1.3333333333333335,0.0,0.2777777777777777,0.43333333333333335,0.5918367346938775,0.55,0.4242424242424243,0.19444444444444442,0.4328165374677002,0.4300111982082866,1.1859649122807017,0.4668989547038329,0.08571428571428585,0.17857142857142838,0.0,0,"Queen Mother Sports Centre, Victoria",51.493573,-0.139956,26,POINT (698532.9337103763 5708593.392280496),3
"Red Lion Square, Holborn",0.0,0.0,0.0,0.0,0.0,0.0,0.0,-0.33333333333333326,0.06366459627329202,0.6591304347826086,0.27521008403361336,0.5185185185185186,0.3666666666666667,0.38888888888888884,0.4642857142857142,0.5,0.9423076923076923,1.9622641509433962,0.9944444444444445,0.3913043478260869,0.48913043478260865,0.19999999999999996,0.4285714285714286,0.0,0,"Red Lion Square, Holborn",51.519435,-0.119123,16,POINT (699865.5526481713 5711525.509333807),3
"Risinghill Street, Angel",0.0,0.0,0.0,0.0,0.0,0.0,0.0,0.28260869565217384,1.2000000000000002,0.605263157894737,0.40740740740740744,0.55,0.28,0.43999999999999995,0.47058823529411775,0.19999999999999996,0.2857142857142858,0.11111111111111116,0.32000000000000006,0.26315789473684204,0.1578947368421053,0.2857142857142858,0.11764705882352944,0.19999999999999996,0,"Risinghill Street, Angel",51.533319,-0.111781,25,POINT (700313.8469744683 5713089.247461584),3
"Sail Street, Vauxhall",0.0,0.0,0.6666666666666667,0.0,0.0,0.0,0.38235294117647056,0.33333333333333326,3.0508474576271185,0.9607843137254901,0.5625,0.35483870967741926,0.24137931034482762,0.3214285714285714,0.36363636363636354,0.3125,0.30263157894736836,0.5650510204081634,0.8333333333333333,0.5675675675675675,0.008403361344537785,-0.08333333333333326,-0.08333333333333326,0.0,0,"Sail Street, Vauxhall",51.495656,-0.114605,24,POINT (700283.2327100643 5708894.073367559),3
"Scala Street, Fitzrovia",0.0,0.0,0.0,-0.5,0.0,0.0,0.0,-0.012605042016806678,-0.13454545454545452,0.0,0.18534482758620685,0.43488372093023253,0.5890909090909091,0.39393939393939403,0.4756756756756757,0.6932367149758454,0.9523809523809523,1.7602459016393444,2.6010928961748636,1.1739130434782608,0.5769230769230769,0.5,0.75,0.5454545454545454,0,"Scala Street, Fitzrovia",51.519914,-0.136039,21,POINT (698690.1128155339 5711532.678439824),3
"Shouldham Street, Marylebone",0.0,0.0,0.0,0.0,0.0,0.0,0.0,0.5714285714285714,2.5081967213114753,2.6,0.8695652173913044,0.5571428571428572,0.33333333333333326,0.4612403100775193,0.5925925925925926,0.4137931034482758,0.22843822843822847,0.5945945945945945,0.8129251700680271,0.12323491655969177,0.3600000000000001,0.030769230769230882,0.36363636363636354,0.2142857142857142,0,"Shouldham Street, Marylebone",51.51809,-0.163609,16,POINT (696785.6362808743 5711255.3493794575),3
"St. Katharine's Way, Tower",-0.33333333333333326,0.0,0.0,0.0,0.0,0.0,0.0,0.8148148148148149,2.2132616487455197,1.1709145427286354,0.2333333333333334,0.2708333333333335,-0.09523809523809534,0.4347826086956521,0.07499999999999996,0.41666666666666674,0.8700000000000001,0.5900709219858156,0.4967441860465116,0.27639751552795033,0.16666666666666674,0.40476190476190466,-0.2597402597402596,0.23809523809523814,0,"St. Katharine's Way, Tower",51.505697,-0.070542,24,POINT (703296.4635742933 5710131.975341608),3
"Tachbrook Street, Victoria",0.0,0.0,0.0,0.0,0.0,0.0,0.0,0.5227272727272727,3.596774193548387,1.0499999999999998,0.6477272727272727,0.7575757575757576,0.5608695652173914,0.2738095238095237,0.5915915915915915,0.8717948717948718,0.5052631578947369,0.55,0.46153846153846145,0.4666666666666668,0.41176470588235303,0.3354037267080745,0.16666666666666674,0.09090909090909083,0,"Tachbrook Street, Victoria",51.492111,-0.138364,16,POINT (698649.7816713944 5708435.164853748),3
"Tavistock Place, Bloomsbury",0.4444444444444444,0.0,0.0,0.0,0.0,0.0,0.0,0.5526315789473684,1.8894523326572006,1.2936507936507935,0.8076923076923077,0.5277777777777777,0.26875000000000004,0.17302052785923738,0.6590909090909092,0.3981900452488687,0.46777546777546797,0.7935606060606062,0.22510518934081336,0.07646176911544234,0.22043010752688175,0.07333333333333325,0.23529411764705888,0.1071428571428572,0,"Tavistock Place, Bloomsbury",51.52625,-0.123509,19,POINT (699531.5193631442 5712271.240219196),3
"Tower Gardens , Tower",0.36363636363636354,0.25,0.0,4.0,0.0,0.0,0.21739130434782616,0.7230769230769232,0.6536170212765957,0.3896103896103895,0.38749999999999996,0.15151515151515138,0.4285714285714286,0.3737373737373737,0.8730158730158728,0.45873015873015865,1.3095238095238093,2.0482456140350878,1.6623931623931623,0.7745098039215685,0.34285714285714275,-0.3999999999999999,0.6571428571428573,0.5583333333333333,0,"Tower Gardens , Tower",51.509506,-0.075459,24,POINT (702938.3703679261 5710541.810757227),3
"Warren Street Station, Euston",-0.48076923076923084,0.22222222222222232,0.0714285714285714,0.0,0.0,0.0,0.23809523809523814,1.2848039215686273,4.573870573870574,1.6083870967741936,1.5992753623188407,1.2454545454545454,1.7758284600389864,2.1233396584440225,1.627181385510312,2.2174638487208007,2.240625,4.275418275418275,3.2619047619047623,3.0893300248138957,2.2222222222222223,1.1172413793103448,0.9305555555555558,0.588235294117647,1,"Warren Street Station, Euston",51.524438,-0.138019,26,POINT (698533.0887587536 5712030.291326325),3
"Waterloo Bridge, South Bank",0.0,-2.333333333333333,0.0,0.0,0.0,0.0,0.0,1.25,2.227272727272727,1.6451612903225805,0.36363636363636354,0.27380952380952395,0.7142857142857142,0.125,0.3076923076923077,-0.05714285714285716,0.18181818181818188,-0.14614121510673228,0.03361344537815136,0.01538461538461533,-0.1166666666666667,0.25,0.6363636363636365,0.6842105263157894,0,"Waterloo Bridge, South Bank",51.505354,-0.113656,15,POINT (700306.547090664 5709974.911073448),3
"Waterloo Station 1, Waterloo",0.30000000000000004,0.0,0.0,0.0,0.0,0.0,5.639344262295082,19.754603174603176,35.08730158730158,16.00921658986175,6.852011494252873,2.2199999999999998,1.414141414141414,1.1636500754147812,0.7118794326241134,-0.18181818181818166,-1.1646423751686907,-2.2736842105263158,-0.4257575757575758,0.12655279503105588,-0.6470588235294117,-0.11833785004516706,0.8458823529411765,0.8518518518518519,1,"Waterloo Station 1, Waterloo",51.504027,-0.113864,36,POINT (700297.9366144529 5709826.8034642935),3
"Wellington Arch, Hyde Park",0.11111111111111116,-0.26666666666666683,0.0,0.0,0.0,0.0,0.0,0.1428571428571428,0.3756521739130434,0.3309523809523811,0.2666666666666666,1.5442583732057416,0.8013937282229966,0.21794871794871806,0.8285714285714283,1.1062271062271065,1.476190476190476,0.617037037037037,0.8958333333333335,1.156451612903226,0.39814814814814836,0.3181818181818181,-0.0714285714285714,0.5,0,"Wellington Arch, Hyde Park",51.50274,-0.149569,36,POINT (697826.0470843634 5709586.562289312),3
"Wellington Street , Strand",0.2857142857142858,0.0,0.0,0.0,0.0,0.0,0.5,0.08181818181818179,0.4124149659863947,0.3797909407665505,0.21895424836601296,0.5055555555555555,0.7050505050505051,0.8791666666666667,1.6586538461538463,1.1518716577540105,1.269047619047619,3.0097146326654522,3.529878618113912,2.587254901960784,1.6785714285714284,1.656862745098039,2.85,0.0,1,"Wellington Street , Strand",51.511756,-0.119643,24,POINT (699863.109118208 5710670.322067618),3
"Westminster University, Marylebone",0.22222222222222232,0.0,0.0,0.0,0.0,0.0,0.0,0.4464285714285714,0.6700111482720179,0.19999999999999996,0.41666666666666674,0.17647058823529416,0.35483870967741926,-0.1785714285714286,0.42500000000000004,0.6435897435897435,0.5247252747252749,0.3136363636363635,0.4642857142857142,0.2384615384615385,0.02666666666666684,0.17500000000000004,0.33333333333333326,0.0,0,"Westminster University, Marylebone",51.522481,-0.154907,16,POINT (697370.2663804777 5711767.000095913),3
"Windsor Terrace, Hoxton",0.0,0.0,0.0,0.0,0.0,0.0,0.9787234042553192,1.1666666666666665,3.4089184060721065,2.150793650793651,0.7619047619047619,0.5161290322580645,-0.030303030303030276,0.4285714285714286,0.2008928571428572,0.34615384615384626,0.25,2.166666666666667,1.4287280701754388,0.6564102564102565,0.3999999999999999,0.14438502673796805,-0.15277777777777768,-0.33333333333333326,0,"Windsor Terrace, Hoxton",51.529154,-0.093421,24,POINT (701605.3761187105 5712676.627229066),3
"Wood Street, Guildhall",0.0,0.0,0.0,0.0,0.0,0.0,-0.0714285714285714,-0.48051948051948057,-0.13725490196078427,-0.20105820105820116,0.18181818181818166,-0.09999999999999987,0.4411764705882353,0.6340909090909093,0.46212121212121215,0.5649122807017544,1.4983766233766236,3.7704918032786887,1.6666666666666665,0.8387096774193548,0.34782608695652173,0.36363636363636354,0.33333333333333326,0.0,0,"Wood Street, Guildhall",51.517008,-0.093885,17,POINT (701626.8662450428 5711324.937425717),3
"Albert Embankment, Vauxhall",0.0,0.0,0.0,0.0,0.0,0.0,0.125,0.3793103448275863,0.5091185410334347,0.5319148936170213,0.46153846153846145,0.0092592592592593,0.11111111111111116,0.28888888888888875,0.31666666666666665,0.021505376344086002,0.5570599613152805,1.0672727272727272,1.062153163152053,0.4015151515151514,-0.050000000000000044,0.0,0.10000000000000009,0.25,0,"Albert Embankment, Vauxhall",51.490435,-0.122806,24,POINT (699736.9161094319 5708291.176671244),0
"Ampton Street , Clerkenwell",0.0,0.0,1.0,0.0,0.0,0.0,0.0,0.43333333333333335,1.833333333333333,1.3157894736842106,1.088888888888889,0.6666666666666667,0.3010033444816054,0.5853658536585367,0.20676691729323315,0.04179566563467474,0.5675675675675675,0.6216216216216217,0.3555555555555556,0.5476190476190477,-0.037267080745341685,-0.4215686274509802,-0.08333333333333326,0.4649122807017543,0,"Ampton Street , Clerkenwell",51.52728,-0.118295,21,POINT (699888.6133905658 5712399.995512439),0
"Arundel Street, Temple",0.0,0.0,0.0,0.0,0.0,0.0,0.0,0.18181818181818188,-0.31534090909090917,-0.7928571428571427,0.04761904761904745,-0.059523809523809534,0.17391304347826098,0.2407407407407407,0.1298701298701299,0.24675324675324672,0.519607843137255,1.8285714285714285,1.0731382978723403,1.270053475935829,1.6279069767441858,0.75,-0.6074074074074076,0.0,0,"Arundel Street, Temple",51.511726,-0.113855,18,POINT (700264.7838794502 5710682.816404603),0
"Ashley Place, Victoria",0.0,0.0,0.0,0.0,0.0,0.0,0.028205128205128105,1.5808823529411766,0.7556149732620319,1.9156492785793562,0.7222222222222223,0.12142857142857144,0.6571428571428573,0.3092436974789916,0.6606574761399786,0.04216073781291163,0.1417004048582997,0.8701298701298701,1.1388888888888888,0.48463356973995264,0.46875,0.4814814814814814,0.13986013986014,0.15384615384615374,0,"Ashley Place, Victoria",51.49616,-0.140947,25,POINT (698452.9142005045 5708878.332119274),0
"Baker Street, Marylebone",0.0,0.0,0.0,0.0,0.0,0.0,-0.21052631578947367,-0.04780487804878053,1.011904761904762,0.9487179487179487,0.3213213213213213,0.5431372549019609,0.8409090909090908,0.7707509881422927,0.16515151515151527,0.8936170212765957,0.9575471698113209,2.611241217798595,1.9833333333333334,0.519047619047619,0.5909090909090908,0.1875,0.33333333333333326,0.19999999999999996,0,"Baker Street, Marylebone",51.518913,-0.156166,22,POINT (697298.3696398009 5711366.903031797),0
"Baldwin Street, St. Luke's",0.0,0.0,0.0,0.0,-1.8888888888888888,0.0,0.3999999999999999,0.2723684210526316,2.584516129032258,1.1865203761755485,0.8999999999999999,0.41346153846153855,1.106382978723404,0.4933333333333332,0.4444444444444444,0.43214285714285716,0.7245370370370372,3.408482142857143,2.1611111111111114,0.6712962962962963,0.26007326007326004,0.3142857142857143,0.35882352941176476,-0.050000000000000044,0,"Baldwin Street, St. Luke's",51.527025,-0.088542,21,POINT (701953.1514140401 5712453.38310053),0
"Belgrave Road, Victoria",0.0,0.0,0.0,0.0,0.0,0.0,0.017857142857142794,0.38022113022113024,0.8823088455772112,0.8279720279720282,0.5,0.3666666666666667,0.6451612903225807,0.32352941176470584,0.3099415204678362,0.1775362318840581,0.19729729729729728,1.260989010989011,0.5777777777777777,-0.014814814814814836,0.15714285714285725,0.0964912280701753,-0.375,0.16666666666666674,0,"Belgrave Road, Victoria",51.493204,-0.144132,29,POINT (698244.7078195581 5708541.043619122),0
"Belgrave Square, Belgravia",0.0,0.0,0.0,0.0,0.0,0.0,0.0,-0.20833333333333326,-0.09472049689440976,-0.09615384615384626,0.375,0.1499999999999999,0.1071428571428572,0.13960113960113962,0.334782608695652,0.2962962962962963,0.5142857142857142,0.9324960753532183,0.7906976744186047,0.3716475095785441,0.19999999999999996,0.0,0.23076923076923084,0.1428571428571428,0,"Belgrave Square, Belgravia",51.499412,-0.152317,21,POINT (697649.769804957 5709209.120039323),0
"Bermondsey Street, Bermondsey",0.25,0.0,0.0,0.0,0.0,0.0,1.3148148148148149,2.630402384500745,4.728327228327228,3.52280701754386,1.4285714285714284,0.8733333333333333,0.6707726763717805,1.0413533834586466,0.4615384615384617,0.868421052631579,0.30654761904761907,0.4135338345864663,-0.5705128205128203,0.4371833839918946,0.345,0.0,0.02777777777777768,0.25,0,"Bermondsey Street, Bermondsey",51.497855,-0.081608,24,POINT (702563.4492599255 5709229.400636813),0
"Berry Street, Clerkenwell",0.16666666666666674,0.0,0.0,0.0,0.0,0.0,0.0,0.411111111111111,0.5964912280701755,0.915151515151515,0.640650406504065,0.9694444444444443,0.30010604453870626,0.7179487179487178,0.48863636363636354,0.9365079365079365,1.0989974937343359,3.651724137931035,3.0127118644067794,0.6689560439560438,-0.03194103194103182,0.5772058823529411,0.1647727272727273,0.25,0,"Berry Street, Clerkenwell",51.522853,-0.099994,41,POINT (701177.3332471119 5711957.972055708),0
"Black Prince Road, Vauxhall",0.33333333333333326,0.0,0.0,0.0,0.0,0.0,0.47058823529411775,0.962962962962963,3.80327868852459,0.8812997347480105,0.36701509872241567,0.1171052631578946,0.06666666666666665,0.3787878787878787,0.04377880184331806,-0.03529411764705892,-0.013586956521739024,0.019607843137254832,0.027210884353741527,0.4602272727272727,0.3306451612903225,0.16194331983805688,0.39473684210526305,0.25,0,"Black Prince Road, Vauxhall",51.490867,-0.116911,19,POINT (700144.1810747804 5708355.314895638),0
"Bolsover Street, Fitzrovia",0.0,0.0,0.0,0.0,0.0,0.0,0.1923076923076923,0.19301470588235303,1.2339901477832511,0.44487427466150886,0.38803088803088803,0.7941176470588236,0.12804878048780477,0.9285714285714286,0.7091836734693877,0.3058608058608059,0.6624040920716112,1.5363408521303257,0.9011299435028246,0.37320574162679443,-0.0326923076923078,0.2777777777777777,0.1166666666666667,0.1428571428571428,0,"Bolsover Street, Fitzrovia",51.523518,-0.143613,19,POINT (698149.1060044516 5711912.833487239),0
"Borough High Street, The Borough",0.0,0.0,0.19999999999999996,0.0,0.0,0.0,0.3968531468531469,0.46515679442508717,2.5385245901639344,1.0238095238095237,0.38888888888888884,0.47159090909090917,0.4466165413533836,0.6028138528138527,0.33687002652519893,0.4222560975609757,0.6837209302325582,1.0059523809523807,0.6494117647058824,0.6530920060331824,0.05128205128205132,0.017857142857142794,0.03571428571428581,-0.06349206349206349,0,"Borough High Street, The Borough",51.500694,-0.094524,21,POINT (701654.5948996162 5709509.363867625),0
"Bourne Street, Belgravia",0.0,0.0,0.0,0.0,0.0,0.33333333333333326,0.19999999999999996,0.20930232558139528,0.3708133971291865,0.6153846153846154,0.2417582417582418,0.2727272727272727,0.1785714285714286,0.25,0.41176470588235303,-0.1428571428571428,0.125,-0.07486631016042766,-0.07917888563049846,-0.06153846153846154,0.0931372549019609,-0.01395348837209287,0.1333333333333333,0.06666666666666665,0,"Bourne Street, Belgravia",51.490959,-0.153233,16,POINT (697622.7766833804 5708266.820844916),0
"Braham Street, Aldgate",0.0,0.5,0.0,0.0,0.0,0.0,0.11538461538461542,0.6592592592592592,1.0492248062015506,1.5411184210526314,0.7205882352941175,0.5194805194805194,1.0142857142857145,0.1763157894736842,0.9268292682926829,0.49777777777777765,2.8,4.822205551387848,2.8129315756434403,1.0055555555555555,1.046153846153846,-0.10807453416149082,0.35151515151515156,0.3035714285714286,1,"Braham Street, Aldgate",51.514233,-0.073537,34,POINT (703050.6851769448 5711072.6966822855),0
"Breams Buildings, Holborn",0.0,0.0,0.0,0.0,0.0,0.0,0.0,0.17647058823529416,-0.7207792207792207,-0.07729468599033829,-0.30952380952380953,0.14583333333333326,-0.13333333333333353,0.31756756756756754,0.2777777777777779,0.5631578947368421,1.6833333333333333,4.97438330170778,4.189247311827957,1.700280112044818,1.1071428571428572,0.38888888888888884,0.4444444444444444,0.25,1,"Breams Buildings, Holborn",51.515937,-0.111778,25,POINT (700390.3865247396 5711156.691134849),0
"British Museum, Bloomsbury",0.11111111111111116,0.0,0.0,0.0,0.0,0.0,0.23076923076923084,0.040760869565217295,1.057142857142857,0.11111111111111116,0.5827526132404182,0.6351648351648351,0.21111111111111125,1.3027950310559007,1.196078431372549,1.0000000000000002,2.2888888888888888,1.906451612903226,0.8908382066276803,1.007337526205451,0.28421052631578947,0.7142857142857142,0.19999999999999996,0.20000000000000018,1,"British Museum, Bloomsbury",51.51908,-0.124678,35,POINT (699481.790303905 5711470.875232247),0
"Brunswick Square, Bloomsbury",0.0,-0.8571428571428572,0.0,0.0,0.0,0.0,0.0,0.33333333333333326,0.4026186579378068,0.5476190476190474,0.6086956521739131,0.2837528604118993,0.22619047619047628,0.4363636363636363,0.6370370370370368,1.0928571428571427,0.7416666666666669,1.7045454545454546,1.6398305084745761,1.2081567796610169,1.489655172413793,0.7976190476190477,0.7179487179487178,0.33333333333333326,1,"Brunswick Square, Bloomsbury",51.523951,-0.122502,24,POINT (699611.4163656881 5712018.380143867),0
"Bunhill Row, Moorgate",0.0,0.0,0.0,0.0,0.0,0.0,0.09219858156028371,-0.005488850771869558,0.8233522917363665,0.6904761904761905,0.29933481152993346,0.4571428571428571,0.7091503267973855,1.2333333333333334,1.25,0.8888888888888888,2.1240740740740742,4.209375,5.428571428571428,2.4567552289429053,1.5830769230769233,0.7267080745341616,0.19259259259259265,0.0,1,"Bunhill Row, Moorgate",51.520858,-0.089887,30,POINT (701887.1607355529 5711764.013916652),0
"Butler Place, Westminster",0.0,0.0,0.0,0.0,0.0,0.0,0.0,0.16666666666666652,-0.6200854700854703,0.21326472269868502,0.32352941176470584,-0.03111111111111109,0.26682692307692313,0.6016483516483517,0.26388888888888884,0.43333333333333335,0.7804878048780488,2.1833333333333336,1.7863636363636362,0.5219638242894056,0.4273504273504274,0.375,-0.03947368421052633,0.1428571428571428,0,"Butler Place, Westminster",51.497829,-0.13544,18,POINT (698827.8289020646 5709078.846000216),0
"Buxton Street 1, Shoreditch",0.0,0.0,0.0,0.0,0.0,0.0,0.0,0.3181818181818181,0.6341463414634145,0.8695652173913044,0.0,0.10000000000000009,0.5333333333333334,-0.2777777777777777,0.3571428571428572,0.41666666666666674,-0.2777777777777777,-0.13875598086124397,0.2441471571906353,-0.0714285714285714,0.017857142857142794,0.6071428571428572,1.0,0.0,0,"Buxton Street 1, Shoreditch",51.521776,-0.068856,41,POINT (703341.7953293375 5711924.338617318),0
"Cadogan Gardens, Chelsea",0.0,0.0,0.0,0.0,0.0,0.0,0.20833333333333326,-0.28260869565217384,1.4078947368421055,0.27450980392156854,0.31720430107526876,0.018939393939394034,0.7241379310344827,0.22222222222222232,0.350574712643678,0.406060606060606,0.26923076923076916,0.3408521303258145,0.6875,0.44736842105263164,0.17647058823529416,0.6153846153846154,0.10000000000000009,0.11111111111111116,0,"Cadogan Gardens, Chelsea",51.492462,-0.159919,15,POINT (697152.2323184309 5708415.8922658125),0
"Calshot Street , King's Cross",0.0,0.0,0.0,0.0,0.0,0.0,0.25,0.7291666666666667,1.0689655172413794,0.40476190476190466,0.3666666666666667,0.010526315789473717,0.0092592592592593,-0.19166666666666665,0.02083333333333326,0.1473214285714286,0.2727272727272727,0.09379310344827574,0.17471264367816097,0.22222222222222232,0.2142857142857142,0.33333333333333326,0.6666666666666667,0.33333333333333326,0,"Calshot Street , King's Cross",51.53136,-0.117069,24,POINT (699955.7530467254 5712856.970114164),0
"Central House, Aldgate",0.36363636363636354,0.0,0.0,0.0,0.0,0.0,0.04761904761904767,0.0,1.2286079182630907,0.6818181818181819,0.4256410256410257,0.2556818181818181,0.29261363636363646,0.31955484896661357,0.34615384615384626,0.40000000000000013,0.3431372549019609,0.9128205128205129,0.1233842538190364,0.23076923076923084,0.6235294117647059,0.0842490842490844,0.18394648829431448,-0.2459893048128341,0,"Central House, Aldgate",51.515231,-0.07015,18,POINT (703281.1985446087 5711193.0626632925),0
"Chicheley Street, South Bank",0.8571428571428572,-0.38888888888888884,0.0,0.0,0.0,0.0,0.0,0.5081521739130435,2.5603448275862073,1.5610766045548656,0.44285714285714284,0.36111111111111116,-0.02499999999999991,0.5944444444444446,-0.15873015873015905,0.7260061919504643,1.1135204081632653,1.226385636221702,1.306980656013457,0.5502392344497609,0.4734848484848484,0.6341463414634145,0.015151515151515138,0.10000000000000009,0,"Chicheley Street, South Bank",51.502698,-0.116747,24,POINT (700103.7187189239 5709671.153663825),0
"Concert Hall Approach 2, South Bank",-0.10000000000000009,2.0,0.0,0.0,0.0,0.0,0.0,3.9319727891156466,5.0,2.2323232323232323,0.3076923076923077,0.125,-0.17460317460317465,-0.5,0.1071428571428572,0.15196078431372562,-0.3441441441441442,-0.10542635658914734,-0.12363636363636354,0.237179487179487,0.09090909090909083,0.11764705882352944,0.2727272727272727,0.6363636363636365,0,"Concert Hall Approach 2, South Bank",51.504942,-0.115533,18,POINT (700178.1181915462 5709923.966618742),0
"Crimscott Street, Bermondsey",0.0,0.0,0.0,0.0,0.0,0.0,0.6222222222222222,2.7095238095238092,6.575806451612904,1.1111111111111112,0.6499999999999999,0.3571428571428572,0.3513513513513513,-0.016483516483516647,-0.033333333333333215,0.46153846153846145,0.40888888888888886,0.06623931623931623,-0.35836462244472234,-0.1652661064425771,0.34391534391534373,-0.18888888888888888,0.2222222222222221,-0.19999999999999996,0,"Crimscott Street, Bermondsey",51.495598,-0.078893,19,POINT (702761.8792273265 5708985.985819713),0
"Crinan Street, King's Cross",0.33333333333333326,0.0,0.0,0.0,0.0,0.0,0.1428571428571428,0.16666666666666674,-0.008403361344537785,0.1499999999999999,-0.10909090909090913,0.41176470588235303,-0.023809523809523947,0.1578947368421053,0.33333333333333326,0.1923076923076923,0.25,0.23035230352303526,0.37777777777777777,0.0,-0.050000000000000044,0.3999999999999999,0.0,0.19999999999999996,0,"Crinan Street, King's Cross",51.534474,-0.122203,20,POINT (699586.1071976232 5713189.1669219285),0
"Dorset Square, Marylebone",0.0,0.25,0.0,0.0,0.0,0.33333333333333326,0.1515151515151516,2.693877551020408,5.996825396825397,1.5449735449735449,0.5621118012422359,0.8500000000000001,0.5307692307692309,0.3938953488372092,0.1493738819320216,0.32413793103448274,-0.10569105691056913,-0.48461538461538467,0.9336670838548184,0.5995370370370372,0.9017857142857142,0.5058823529411764,0.14285714285714302,0.08771929824561409,0,"Dorset Square, Marylebone",51.522596,-0.161113,16,POINT (696939.3258867175 5711763.057755013),0
"Drury Lane, Covent Garden",0.19999999999999996,0.0,0.0,0.0,0.0,0.0,0.4553571428571428,0.3849206349206349,0.29319955406911924,0.0399529964747356,-0.2814589665653495,0.0793650793650793,1.5941286113699906,0.02413273001508287,0.9693223443223444,0.5676923076923075,1.0336206896551725,2.49768875192604,3.209005376344086,1.2857142857142856,1.3272727272727274,1.543859649122807,1.9795918367346939,-2.4074074074074074,1,"Drury Lane, Covent Garden",51.51477,-0.122219,27,POINT (699671.2129700341 5710998.3896947885),0
"Eccleston Place, Victoria",0.0,0.0,0.0,0.0,0.0,-0.11111111111111116,0.1875,0.5725338491295939,2.6478405315614615,1.354385964912281,1.1612648221343875,0.7505175983436854,0.8853046594982079,0.5972222222222221,0.1777777777777778,0.4735576923076923,0.07080610021786482,1.1477272727272727,0.7818627450980391,0.4235006119951039,0.4423076923076923,0.2416666666666667,0.55,0.0,0,"Eccleston Place, Victoria",51.49395,-0.147624,19,POINT (697999.1160828781 5708614.530400084),0
"Edgware Road Station, Marylebone",0.19999999999999996,0.25,0.0,0.0,0.0,0.0,0.0,0.632495164410058,2.299777530589544,1.2173913043478262,0.02586206896551735,0.6607142857142858,0.12121212121212133,0.810483870967742,0.37044534412955477,0.3904761904761904,0.5717171717171718,0.8838383838383839,0.40289855072463787,0.1651785714285714,-0.11822660098522175,-0.16666666666666652,-0.33333333333333326,0.08333333333333326,0,"Edgware Road Station, Marylebone",51.519968,-0.169774,64,POINT (696349.9133017033 5711447.5836651195),0
